[
 {
  "id": "13800",
  "name": "SNMTOS. EMILIO MAYORAL, S.L.",
  "address": "Calle Don Juan I, 19-21",
  "city": "Alcalá de Henares",
  "province": "Madrid",
  "postal_code": "28807",
  "phone": "918881050",
  "web": null,
  "lat": 40.485455,
  "lon": -3.367298,
  "exposition": true,
  "category": "Con exposición"
 },
 {
  "id": "13802",
  "name": "A. FELICIANO, S.A. - AFELSA",
  "address": "Calle Mesa y López, 61",
  "city": "Las Palmas de Gran Canaria",
  "province": "Las Palmas",
  "postal_code": "35010",
  "phone": "928221450",
  "web": null,
  "lat": 28.131756,
  "lon": -15.438071,
  "exposition": true,
  "category": "Con exposición"
 },
 {
  "id": "13803",
  "name": "A. FELICIANO, S.A. - AFELSA",
  "address": "Avenida tres de mayo, 18",
  "city": "Santa Cruz de Tenerife",
  "province": "Santa Cruz de Tenerife",
  "postal_code": "38005",
  "phone": "922219000",
  "web": null,
  "lat": 28.459621,
  "lon": -16.255156,
  "exposition": true,
  "category": "Con exposición"
 },
 {
  "id": "13804",
  "name": "A. FELICIANO, S.A. - AFELSA",
  "address": "Calle Abenguareme, 3",
  "city": "Santa Cruz de la Palma",
  "province": "Santa Cruz de Tenerife",
  "postal_code": "38700",
  "phone": "922420192",
  "web": null,
  "lat": 28.691717,
  "lon": -17.76029,
  "exposition": true,
  "category": "Con exposición"
 },
 {
  "id": "13805",
  "name": "A. FELICIANO, S.A. - AFELSA",
  "address": "Calle Las Rosas, S/N",
  "city": "Los Llanos de Aridane",
  "province": "Santa Cruz de Tenerife",
  "postal_code": "38767",
  "phone": "922461112",
  "web": null,
  "lat": 28.652753,
  "lon": -17.916754,
  "exposition": true,
  "category": "Con exposición"
 },
 {
  "id": "13806",
  "name": "A. VILLANUEVA Y CIA. S.L.",
  "address": "Calle Elvira de Hidalgo, 9",
  "city": "Zaragoza",
  "province": "Zaragoza",
  "postal_code": "50004",
  "phone": "976213712",
  "web": null,
  "lat": 41.649231,
  "lon": -0.889947,
  "exposition": true,
  "category": "Con exposición"
 },
 {
  "id": "13807",
  "name": "A. VILLANUEVA Y CIA. S.L.",
  "address": "Carretera Valencia, Km 10, Nave 32",
  "city": "Cuarte de Huerva",
  "province": "Zaragoza",
  "postal_code": "50410",
  "phone": "976504786",
  "web": null,
  "lat": 41.578314,
  "lon": -0.955675,
  "exposition": false,
  "category": "Sin exposición"
 },
 {
  "id": "13809",
  "name": "AISLAMIENTOS ISOLAIS",
  "address": "Pol. Ind. Los Olivares Calle Mancha Real, 55-57",
  "city": "Jaén",
  "province": "Jaén",
  "postal_code": "23009",
  "phone": "953 280 786",
  "web": null,
  "lat": 37.802007,
  "lon": -3.787245,
  "exposition": true,
  "category": "Con exposición"
 },
 {
  "id": "13811",
  "name": "AISLAMIENTOS ISOLAIS",
  "address": "Calle París, 20-22 - Polígono Industrial San Luis",
  "city": "Málaga",
  "province": "Málaga",
  "postal_code": "29006",
  "phone": "952040650",
  "web": null,
  "lat": 36.700279,
  "lon": -4.472447,
  "exposition": false,
  "category": "Sin exposición"
 },
 {
  "id": "13812",
  "name": "AISLAMIENTOS JAVIER, S.L.",
  "address": "Calle de los Alfareros, 44",
  "city": "Palencia",
  "province": "Palencia",
  "postal_code": "34004",
  "phone": "979720659",
  "web": null,
  "lat": 42.00083,
  "lon": -4.50362,
  "exposition": true,
  "category": "Con exposición"
 },
 {
  "id": "13814",
  "name": "ALBERCH, S.A.",
  "address": "Autovía de Salou Km. 1,5",
  "city": "Reus",
  "province": "Tarragona",
  "postal_code": "43206",
  "phone": "977772205",
  "web": null,
  "lat": 41.131907,
  "lon": 1.121126,
  "exposition": true,
  "category": "Con exposición"
 },
 {
  "id": "13816",
  "name": "ALBERCH, S.A.",
  "address": "Carretera de Mataró, 27",
  "city": "Badalona",
  "province": "Barcelona",
  "postal_code": "08911",
  "phone": "933894200",
  "web": null,
  "lat": 41.458803,
  "lon": 2.26437,
  "exposition": true,
  "category": "Con exposición"
 },
 {
  "id": "13818",
  "name": "ALBERCH, S.A.",
  "address": "Avenida Barcelona, 26 - Ctra. N II antigua Km. 3,300",
  "city": "Figueres",
  "province": "Girona",
  "postal_code": "17600",
  "phone": "972505862",
  "web": null,
  "lat": 42.245963,
  "lon": 2.971443,
  "exposition": true,
  "category": "Con exposición"
 },
 {
  "id": "13819",
  "name": "ALBERCH, S.A.",
  "address": "Carretera de Viella km 4,5",
  "city": "Lleida",
  "province": "Lleida",
  "postal_code": "25196",
  "phone": "973234635",
  "web": null,
  "lat": 41.64361,
  "lon": 0.614178,
  "exposition": true,
  "category": "Con exposición"
 },
 {
  "id": "13820",
  "name": "ALCASA CASTILLA",
  "address": "Calle Pasteur, 33-35 - Polígono Industrial Los Villares",
  "city": "Villares de la Reina",
  "province": "Salamanca",
  "postal_code": "37184",
  "phone": "923282456",
  "web": null,
  "lat": 40.989634,
  "lon": -5.640738,
  "exposition": true,
  "category": "Con exposición"
 },
 {
  "id": "13822",
  "name": "ALCASA SATURNO, S.L.",
  "address": "Calle Turquesa, 57 - Polígono Industrial San Cristóbal",
  "city": "Valladolid",
  "province": "Valladolid",
  "postal_code": "47012",
  "phone": "983309422",
  "web": null,
  "lat": 41.622429,
  "lon": -4.697959,
  "exposition": true,
  "category": "Con exposición"
 },
 {
  "id": "13824",
  "name": "ALCASA SATURNO, S.L.",
  "address": "Calle Saturno, 3",
  "city": "Valladolid",
  "province": "Valladolid",
  "postal_code": "47009",
  "phone": "983337800",
  "web": null,
  "lat": 41.664533,
  "lon": -4.736894,
  "exposition": true,
  "category": "Con exposición"
 },
 {
  "id": "13825",
  "name": "ALEJANDRO DEL AMO, S.A.",
  "address": "Calle C, parcela 225 - Polígono Industrial Las Casas",
  "city": "Soria",
  "province": "Soria",
  "postal_code": "42005",
  "phone": "975226672",
  "web": null,
  "lat": 41.776131,
  "lon": -2.487618,
  "exposition": true,
  "category": "Con exposición"
 },
 {
  "id": "13827",
  "name": "ALEJANDRO DEL AMO, S.A.",
  "address": "Calle Monasterio Descalzas Reales, 2 - Polígono Industrial Alcalde Caballero",
  "city": "Zaragoza",
  "province": "Zaragoza",
  "postal_code": "50014",
  "phone": "976449235",
  "web": null,
  "lat": 41.675796,
  "lon": -0.86176,
  "exposition": true,
  "category": "Con exposición"
 },
 {
  "id": "13829",
  "name": "ALEJANDRO DEL AMO, S.A.",
  "address": "Calle Guadalajara-Jalisco, 102 - Polígono Industrial Henares",
  "city": "Guadalajara",
  "province": "Guadalajara",
  "postal_code": "19004",
  "phone": "949213440",
  "web": null,
  "lat": 40.656205,
  "lon": -3.184625,
  "exposition": true,
  "category": "Con exposición"
 },
 {
  "id": "13831",
  "name": "ALFONSO JIMENEZ E HIJOS, S.L.",
  "address": "Ronda Norte, 23",
  "city": "Murcia",
  "province": "Murcia",
  "postal_code": "30009",
  "phone": "968290188",
  "web": null,
  "lat": 37.992185,
  "lon": -1.13954,
  "exposition": true,
  "category": "Con exposición"
 },
 {
  "id": "13833",
  "name": "ALFONSO JIMENEZ E HIJOS, S.L.",
  "address": "Carretera Yecla.Partida Fuentecilla, 87",
  "city": "Villena",
  "province": "Alicante",
  "postal_code": "03400",
  "phone": "965813571",
  "web": null,
  "lat": 38.633472,
  "lon": -0.887525,
  "exposition": true,
  "category": "Con exposición"
 },
 {
  "id": "13835",
  "name": "ALFONSO JIMENEZ E HIJOS, S.L.",
  "address": "Avenida de Murcia, S/N",
  "city": "Jumilla",
  "province": "Murcia",
  "postal_code": "30520",
  "phone": "968780808",
  "web": null,
  "lat": 38.471427,
  "lon": -1.31335,
  "exposition": true,
  "category": "Con exposición"
 },
 {
  "id": "13837",
  "name": "ALFONSO JIMENEZ E HIJOS, S.L.",
  "address": "Carretera de Mazarron KM.2",
  "city": "El Palmar",
  "province": "Murcia",
  "postal_code": "30120",
  "phone": "968881301",
  "web": null,
  "lat": 37.940463,
  "lon": -1.175582,
  "exposition": false,
  "category": "Sin exposición"
 },
 {
  "id": "13839",
  "name": "ALFONSO JIMENEZ E HIJOS, S.L.",
  "address": "Carretera Caudete, S/N",
  "city": "Yecla",
  "province": "Murcia",
  "postal_code": "30510",
  "phone": "968796963",
  "web": null,
  "lat": 38.618072,
  "lon": -1.109962,
  "exposition": true,
  "category": "Con exposición"
 },
 {
  "id": "13841",
  "name": "ALFONSO JIMENEZ E HIJOS, S.L.",
  "address": "Carretera Granada KM. 1 - Polígono Santa Inés",
  "city": "Caravaca de la Cruz",
  "province": "Murcia",
  "postal_code": "30400",
  "phone": "968708422",
  "web": null,
  "lat": 38.085869,
  "lon": -1.869695,
  "exposition": true,
  "category": "Con exposición"
 },
 {
  "id": "13843",
  "name": "IXOS ALGECOSA - OCHOA",
  "address": "Carretera Zaragoza, KM 98,2",
  "city": "Fontellas",
  "province": "Navarra",
  "postal_code": "31512",
  "phone": "948823300",
  "web": null,
  "lat": 42.029333,
  "lon": -1.583055,
  "exposition": true,
  "category": "Con exposición"
 },
 {
  "id": "13845",
  "name": "ALMACEN HNOS. GARCIA, S.A.",
  "address": "Calle Baños, 30",
  "city": "Albacete",
  "province": "Albacete",
  "postal_code": "02005",
  "phone": "967232512",
  "web": null,
  "lat": 38.9973,
  "lon": -1.860528,
  "exposition": true,
  "category": "Con exposición"
 },
 {
  "id": "13846",
  "name": "ALMACEN HNOS. GARCIA, S.A.",
  "address": "Calle Baños, 37",
  "city": "Albacete",
  "province": "Albacete",
  "postal_code": "02005",
  "phone": "967232512",
  "web": null,
  "lat": 38.997351,
  "lon": -1.860805,
  "exposition": false,
  "category": "Sin exposición"
 },
 {
  "id": "13847",
  "name": "ALMACEN HNOS. GARCIA, S.A.",
  "address": "Calle C, 12 - Polígono Industrial Campollano",
  "city": "Albacete",
  "province": "Albacete",
  "postal_code": "02007",
  "phone": "967232512",
  "web": null,
  "lat": 39.016633,
  "lon": -1.883928,
  "exposition": false,
  "category": "Sin exposición"
 },
 {
  "id": "13848",
  "name": "ALMACENES LOZAGO, S.L.",
  "address": "Calle Florida, 13 - Bajo",
  "city": "Teruel",
  "province": "Teruel",
  "postal_code": "44003",
  "phone": "978608803",
  "web": null,
  "lat": 40.3374,
  "lon": -1.10925,
  "exposition": true,
  "category": "Con exposición"
 },
 {
  "id": "13851",
  "name": "ALMACENES PEDRO VIÑAS, S.L.",
  "address": "Calle San Julián, S/N",
  "city": "Sarria",
  "province": "Lugo",
  "postal_code": "27614",
  "phone": "982530060",
  "web": null,
  "lat": 42.795189,
  "lon": -7.38791,
  "exposition": true,
  "category": "Con exposición"
 },
 {
  "id": "13855",
  "name": "ANTONIO CABOT FORNES, S.A.",
  "address": "Calle San Ignacio, 77",
  "city": "Palma de Mallorca",
  "province": "Illes Balears",
  "postal_code": "07008",
  "phone": "971248343",
  "web": null,
  "lat": 39.574766,
  "lon": 2.676062,
  "exposition": true,
  "category": "Con exposición"
 },
 {
  "id": "13856",
  "name": "ANTONIO CABOT FORNES, S.A.",
  "address": "Calle San Leandro, 77",
  "city": "Palma de Mallorca",
  "province": "Illes Balears",
  "postal_code": "07008",
  "phone": "971248343",
  "web": null,
  "lat": 39.57496,
  "lon": 2.675295,
  "exposition": false,
  "category": "Sin exposición"
 },
 {
  "id": "13857",
  "name": "ANTONIO CABOT FORNES, S.A.",
  "address": "Calle Pedro Lafayo, S/N - Can Bufi",
  "city": "Ibiza",
  "province": "Illes Balears",
  "postal_code": "07800",
  "phone": "971316594",
  "web": null,
  "lat": 38.921833,
  "lon": 1.424104,
  "exposition": true,
  "category": "Con exposición"
 },
 {
  "id": "13858",
  "name": "ANTONIO CABOT FORNES, S.A.",
  "address": "Calle gremi Sucrers i Candelers 18 - Polígono Son Castelló",
  "city": "Palma de Mallorca",
  "province": "Illes Balears",
  "postal_code": "07009",
  "phone": "971431022",
  "web": null,
  "lat": 39.610041,
  "lon": 2.662401,
  "exposition": false,
  "category": "Sin exposición"
 },
 {
  "id": "13859",
  "name": "ANTONIO CABOT FORNES, S.A.",
  "address": "Calle Fausto Morell, 22",
  "city": "Palma de Mallorca",
  "province": "Illes Balears",
  "postal_code": "07005",
  "phone": "971466216",
  "web": null,
  "lat": 39.575662,
  "lon": 2.662004,
  "exposition": false,
  "category": "Sin exposición"
 },
 {
  "id": "13860",
  "name": "ANTONIO CABOT FORNES, S.A.",
  "address": "Calle San Alonso Rodriguez, 23",
  "city": "Felanitx",
  "province": "Illes Balears",
  "postal_code": "07200",
  "phone": "971584301",
  "web": null,
  "lat": 39.472889,
  "lon": 3.14654,
  "exposition": false,
  "category": "Sin exposición"
 },
 {
  "id": "13861",
  "name": "ANTONIO CABOT FORNES, S.A.",
  "address": "Calle Formentera, 1",
  "city": "El Arenal",
  "province": "Illes Balears",
  "postal_code": "07600",
  "phone": "971444620",
  "web": null,
  "lat": 39.50151,
  "lon": 2.757769,
  "exposition": false,
  "category": "Sin exposición"
 },
 {
  "id": "13862",
  "name": "ANTONIO CABOT FORNES, S.A.",
  "address": "Calle Illes Balears, 46",
  "city": "Santa Ponsa",
  "province": "Illes Balears",
  "postal_code": "07180",
  "phone": "971692177",
  "web": null,
  "lat": 39.531944,
  "lon": 2.507293,
  "exposition": false,
  "category": "Sin exposición"
 },
 {
  "id": "13863",
  "name": "APALLISER, S.L.",
  "address": "Avenida Cap de Cavalleria, 1",
  "city": "Maó",
  "province": "Illes Balears",
  "postal_code": "07714",
  "phone": "971352300",
  "web": null,
  "lat": 39.889024,
  "lon": 4.251469,
  "exposition": false,
  "category": "Sin exposición"
 },
 {
  "id": "13864",
  "name": "APALLISER, S.L.",
  "address": "Calle Capifort, 11   Poima",
  "city": "Maó",
  "province": "Illes Balears",
  "postal_code": "07714",
  "phone": "971357300",
  "web": null,
  "lat": 39.887635,
  "lon": 4.248816,
  "exposition": false,
  "category": "Sin exposición"
 },
 {
  "id": "13865",
  "name": "AQUADER GASCO, S.L.",
  "address": "Calle Quart, 59",
  "city": "Moncada",
  "province": "Valencia",
  "postal_code": "46113",
  "phone": "961390082",
  "web": null,
  "lat": 39.550424,
  "lon": -0.392824,
  "exposition": true,
  "category": "Con exposición"
 },
 {
  "id": "13867",
  "name": "ARAMBURU GUZMAN, S.L.",
  "address": "Calle del Desarrollo, S/N - Parque Empresarial",
  "city": "Jerez de la Frontera",
  "province": "Cádiz",
  "postal_code": "11407",
  "phone": "956318673",
  "web": null,
  "lat": 36.712602,
  "lon": -6.124277,
  "exposition": true,
  "category": "Con exposición"
 },
 {
  "id": "13869",
  "name": "ARAMBURU GUZMAN, S.L.",
  "address": "Carretera  Huelva-Sevilla Km. 637",
  "city": "Huelva",
  "province": "Huelva",
  "postal_code": "21007",
  "phone": "959271101",
  "web": null,
  "lat": 37.272646,
  "lon": -6.913077,
  "exposition": true,
  "category": "Con exposición"
 },
 {
  "id": "13871",
  "name": "ARAMBURU GUZMAN, S.L.",
  "address": "Avenida Fernández Murube, 18 - Polígono Industrial Carretera Amarilla",
  "city": "Sevilla",
  "province": "Sevilla",
  "postal_code": "41007",
  "phone": "665230308",
  "web": null,
  "lat": 37.392234,
  "lon": -5.943523,
  "exposition": true,
  "category": "Con exposición"
 },
 {
  "id": "13872",
  "name": "ARAMBURU GUZMAN, S.L.",
  "address": "Calle Valladolid Parc R-49 - Polígono Industrial El Prado",
  "city": "Mérida",
  "province": "Badajoz",
  "postal_code": "06800",
  "phone": "924389414",
  "web": null,
  "lat": 38.926749,
  "lon": -6.382644,
  "exposition": false,
  "category": "Sin exposición"
 },
 {
  "id": "13873",
  "name": "ARAMBURU GUZMAN, S.L.",
  "address": "Calle Lonja, 9 - Polígono Industrial Pisa",
  "city": "Mairena del Aljarafe",
  "province": "Sevilla",
  "postal_code": "41927",
  "phone": "954186872",
  "web": null,
  "lat": 37.355786,
  "lon": -6.05294,
  "exposition": true,
  "category": "Con exposición"
 },
 {
  "id": "13874",
  "name": "ARIAS NADELA, S.L.",
  "address": "Parcela B11, P.I. PCOMACO",
  "city": "A Coruña",
  "province": "A Coruña",
  "postal_code": "15190",
  "phone": "981170983",
  "web": null,
  "lat": 43.335888,
  "lon": -8.424048,
  "exposition": true,
  "category": "Con exposición"
 },
 {
  "id": "13876",
  "name": "ARIAS NADELA, S.L.",
  "address": "Calle Fernando Macías, 22",
  "city": "A Coruña",
  "province": "A Coruña",
  "postal_code": "15004",
  "phone": "981258556",
  "web": null,
  "lat": 43.366404,
  "lon": -8.412831,
  "exposition": false,
  "category": "Sin exposición"
 },
 {
  "id": "13878",
  "name": "ARIAS NADELA, S.L.",
  "address": "Carretera Nal.VI-Madrid-Coruña KM. 508",
  "city": "Lugo",
  "province": "Lugo",
  "postal_code": "27002",
  "phone": "982221254",
  "web": null,
  "lat": 42.990053,
  "lon": -7.544448,
  "exposition": true,
  "category": "Con exposición"
 },
 {
  "id": "13880",
  "name": "ARIAS NADELA, S.L.",
  "address": "Ronda de la Muralla,120",
  "city": "Lugo",
  "province": "Ourense",
  "postal_code": "32630",
  "phone": "982245909",
  "web": null,
  "lat": 43.013794,
  "lon": -7.561239,
  "exposition": false,
  "category": "Sin exposición"
 },
 {
  "id": "13882",
  "name": "BLANCO QUINTAS, S.A.",
  "address": "Acceso Parque empresarial, 5",
  "city": "Xinzo de Limia",
  "province": "Pontevedra",
  "postal_code": "36210",
  "phone": "988461123",
  "web": null,
  "lat": 42.075247,
  "lon": -7.729542,
  "exposition": true,
  "category": "Con exposición"
 },
 {
  "id": "13884",
  "name": "BLANCO QUINTAS, S.A.",
  "address": "Avenida Fragoso, 61",
  "city": "Vigo",
  "province": "Pontevedra",
  "postal_code": "36210",
  "phone": "986247279",
  "web": null,
  "lat": 42.216121,
  "lon": -8.735337,
  "exposition": true,
  "category": "Con exposición"
 },
 {
  "id": "13886",
  "name": "BLANCO QUINTAS, S.A.",
  "address": "Avenida Otero Pedrayo, 8",
  "city": "Ourense",
  "province": "Pontevedra",
  "postal_code": "36415",
  "phone": "988391478",
  "web": null,
  "lat": 42.343933,
  "lon": -7.853338,
  "exposition": true,
  "category": "Con exposición"
 },
 {
  "id": "13888",
  "name": "BLANCO QUINTAS, S.A.",
  "address": "Monte Faquiña Tameiga",
  "city": "Mos",
  "province": "Lugo",
  "postal_code": "27880",
  "phone": "986288041",
  "web": null,
  "lat": 42.210826,
  "lon": -8.645701,
  "exposition": true,
  "category": "Con exposición"
 },
 {
  "id": "13890",
  "name": "BONGRUP BALEARES, S.L.",
  "address": "Calle Nicolas de Pax, 15",
  "city": "Palma de Mallorca",
  "province": "Illes Balears",
  "postal_code": "07009",
  "phone": "971466304",
  "web": null,
  "lat": 39.57427,
  "lon": 2.660422,
  "exposition": true,
  "category": "Con exposición"
 },
 {
  "id": "13891",
  "name": "BONGRUP BALEARES, S.L.",
  "address": "Carretera De Palma-Artá, km 48 (vial de servei,  46-48)",
  "city": "Manacor",
  "province": "Illes Balears",
  "postal_code": "07500",
  "phone": "971550981",
  "web": null,
  "lat": 39.57245,
  "lon": 3.192159,
  "exposition": true,
  "category": "Con exposición"
 },
 {
  "id": "13892",
  "name": "BONGRUP BALEARES, S.L.",
  "address": "Calle Menestrals, 2",
  "city": "Inca",
  "province": "Illes Balears",
  "postal_code": "07300",
  "phone": "971500137",
  "web": null,
  "lat": 39.716033,
  "lon": 2.910949,
  "exposition": true,
  "category": "Con exposición"
 },
 {
  "id": "13893",
  "name": "BONGRUP BALEARES, S.L.",
  "address": "Calle Gremio Herreros, 39",
  "city": "Palma de Mallorca",
  "province": "Illes Balears",
  "postal_code": "07009",
  "phone": "971430411 | 971430411",
  "web": null,
  "lat": 39.604004,
  "lon": 2.673932,
  "exposition": true,
  "category": "Con exposición"
 },
 {
  "id": "13894",
  "name": "BONGRUP BALEARES, S.L.",
  "address": "Calle Nicolas de Pax, 27",
  "city": "Palma de Mallorca",
  "province": "Illes Balears",
  "postal_code": "07009",
  "phone": "971462834",
  "web": null,
  "lat": 39.60568,
  "lon": 2.673541,
  "exposition": true,
  "category": "Con exposición"
 },
 {
  "id": "13895",
  "name": "BONGRUP BALEARES, S.L.",
  "address": "Calle Gremio Zapateros, 45",
  "city": "Palma de Mallorca",
  "province": "Illes Balears",
  "postal_code": "07009",
  "phone": "971430045",
  "web": null,
  "lat": 39.603005,
  "lon": 2.665698,
  "exposition": true,
  "category": "Con exposición"
 },
 {
  "id": "13896",
  "name": "BONGRUP BALEARES, S.L.",
  "address": "Calle Dragonera, 18",
  "city": "El Arenal",
  "province": "Illes Balears",
  "postal_code": "07600",
  "phone": "971007124",
  "web": null,
  "lat": 39.499469,
  "lon": 2.758208,
  "exposition": true,
  "category": "Con exposición"
 },
 {
  "id": "13897",
  "name": "BRICON CACERES, S.L.",
  "address": "Carretera Miajadas, S/N",
  "city": "Cáceres",
  "province": "Cáceres",
  "postal_code": "10002",
  "phone": "927248870",
  "web": null,
  "lat": 39.455748,
  "lon": -6.368067,
  "exposition": true,
  "category": "Con exposición"
 },
 {
  "id": "13899",
  "name": "CALVO Y MUNAR, S.A.",
  "address": "Calle Turin, 11A - Polígono Industrial Európolis",
  "city": "Las Rozas",
  "province": "Madrid",
  "postal_code": "28230",
  "phone": "916363760",
  "web": null,
  "lat": 40.493533,
  "lon": -3.875792,
  "exposition": true,
  "category": "Con exposición"
 },
 {
  "id": "13901",
  "name": "CALVO Y MUNAR, S.A.",
  "address": "Calle Juan de Austria, 3",
  "city": "Madrid",
  "province": "Madrid",
  "postal_code": "28010",
  "phone": "914486300",
  "web": null,
  "lat": 40.431902,
  "lon": -3.699233,
  "exposition": true,
  "category": "Con exposición"
 },
 {
  "id": "13903",
  "name": "CALVO Y MUNAR, S.A.",
  "address": "Avenida de Castilla, 32 - Nave 19",
  "city": "San Fernando de Henares",
  "province": "Madrid",
  "postal_code": "28830",
  "phone": "916751690",
  "web": null,
  "lat": 40.454,
  "lon": -3.494503,
  "exposition": true,
  "category": "Con exposición"
 },
 {
  "id": "13905",
  "name": "CALVO Y MUNAR, S.A.",
  "address": "Calle de Guadarrama, 32",
  "city": "Segovia",
  "province": "Segovia",
  "postal_code": "40006",
  "phone": "921412411",
  "web": null,
  "lat": 40.942903,
  "lon": -4.108807,
  "exposition": true,
  "category": "Con exposición"
 },
 {
  "id": "13907",
  "name": "CALYGAS S.L",
  "address": "Polígono Empordà Internacional",
  "city": "Vilamalla",
  "province": "Girona",
  "postal_code": "17600",
  "phone": "972525150",
  "web": null,
  "lat": 42.227457,
  "lon": 2.986242,
  "exposition": true,
  "category": "Con exposición"
 },
 {
  "id": "13908",
  "name": "CALYGAS S.L",
  "address": "Calle Pep Ventura, S/N",
  "city": "Olot",
  "province": "Girona",
  "postal_code": "17800",
  "phone": "972265724",
  "web": null,
  "lat": 42.192316,
  "lon": 2.505347,
  "exposition": true,
  "category": "Con exposición"
 },
 {
  "id": "13909",
  "name": "CALYGAS S.L",
  "address": "Calle Rafael Savalls, 1",
  "city": "Palamós",
  "province": "Girona",
  "postal_code": "17230",
  "phone": "972316425",
  "web": null,
  "lat": 41.861,
  "lon": 3.133172,
  "exposition": false,
  "category": "Sin exposición"
 },
 {
  "id": "13910",
  "name": "CALYGAS S.L",
  "address": "Av. Josep Tarradellas, Nau 4",
  "city": "La Bisbal d'Empordà",
  "province": "Girona",
  "postal_code": "17100",
  "phone": "972643545",
  "web": null,
  "lat": 41.960806,
  "lon": 3.037026,
  "exposition": true,
  "category": "Con exposición"
 },
 {
  "id": "13911",
  "name": "CALYGAS S.L",
  "address": "Carrer de Sant Adolf, 23",
  "city": "Sant Feliu de Guíxols",
  "province": "Girona",
  "postal_code": "17220",
  "phone": "972327502",
  "web": null,
  "lat": 41.786441,
  "lon": 3.02602,
  "exposition": false,
  "category": "Sin exposición"
 },
 {
  "id": "13912",
  "name": "CEMENTO Y CERAMICA, S.A.",
  "address": "Calle Navatornera, 5",
  "city": "Galapagar",
  "province": "Madrid",
  "postal_code": "28260",
  "phone": "918581823",
  "web": null,
  "lat": 40.582613,
  "lon": -3.996121,
  "exposition": true,
  "category": "Con exposición"
 },
 {
  "id": "13914",
  "name": "CEMENTO Y CERAMICA, S.A.",
  "address": "Calle Villaviciosa esquina calle Ferrocarril - Polígono Industrial Alparrache III",
  "city": "Navalcarnero",
  "province": "Madrid",
  "postal_code": "28600",
  "phone": "918101990",
  "web": null,
  "lat": 40.292224,
  "lon": -4.002628,
  "exposition": true,
  "category": "Con exposición"
 },
 {
  "id": "13916",
  "name": "CEMENTO Y CERAMICA, S.A.",
  "address": "Calle Ferrocarril, 3",
  "city": "Madrid",
  "province": "Madrid",
  "postal_code": "28045",
  "phone": "912670420",
  "web": null,
  "lat": 40.400613,
  "lon": -3.694655,
  "exposition": true,
  "category": "Con exposición"
 },
 {
  "id": "13918",
  "name": "CEGRISA",
  "address": "Calle Alfredo Calderón, 61",
  "city": "Las Palmas de Gran Canaria",
  "province": "Las Palmas",
  "postal_code": "35006",
  "phone": "928296929",
  "web": null,
  "lat": 28.130477,
  "lon": -15.433676,
  "exposition": true,
  "category": "Con exposición"
 },
 {
  "id": "13920",
  "name": "CERAMIC. GRIFER.Y SANITARIOS, S.A. (CEGRISA)",
  "address": "Calle Los Pelegrinos, 1 - Polígono Industrial El Goro",
  "city": "Telde",
  "province": "Las Palmas",
  "postal_code": "35219",
  "phone": "928700619",
  "web": null,
  "lat": 27.966378,
  "lon": -15.390562,
  "exposition": true,
  "category": "Con exposición"
 },
 {
  "id": "13922",
  "name": "CERAMIC. GRIFER.Y SANITARIOS, S.A. (CEGRISA)",
  "address": "Carretera Aeropuerto KM.3 - Polígono Industrial Playa Honda",
  "city": "San Bartolomé",
  "province": "Las Palmas",
  "postal_code": "35509",
  "phone": "928823555",
  "web": null,
  "lat": 28.957635,
  "lon": -13.586306,
  "exposition": true,
  "category": "Con exposición"
 },
 {
  "id": "13926",
  "name": "COMERCIAL BAEZA CEUTA, S.A.",
  "address": "Calle Ampliación Muelle de Poniente, 96",
  "city": "Ceuta",
  "province": "Ceuta",
  "postal_code": "51001",
  "phone": "956511312",
  "web": null,
  "lat": 35.89589,
  "lon": -5.331459,
  "exposition": true,
  "category": "Con exposición"
 },
 {
  "id": "13927",
  "name": "COMERCIAL FONT GAS, S.L.",
  "address": "Calle Castellassa, 42",
  "city": "Terrassa",
  "province": "Barcelona",
  "postal_code": "08227",
  "phone": "937349900",
  "web": null,
  "lat": 41.581276,
  "lon": 2.031146,
  "exposition": true,
  "category": "Con exposición"
 },
 {
  "id": "13929",
  "name": "COMERCIAL FONT GAS, S.L.",
  "address": "Calle Sant Ferran, 209-213",
  "city": "Sabadell",
  "province": "Barcelona",
  "postal_code": "08205",
  "phone": "937205566",
  "web": null,
  "lat": 41.536317,
  "lon": 2.10139,
  "exposition": true,
  "category": "Con exposición"
 },
 {
  "id": "13931",
  "name": "COMERCIAL FONT GAS, S.L.",
  "address": "Calle Vilamarí, 30-32",
  "city": "Barcelona",
  "province": "Barcelona",
  "postal_code": "08015",
  "phone": "933278822",
  "web": null,
  "lat": 41.376607,
  "lon": 2.152538,
  "exposition": true,
  "category": "Con exposición"
 },
 {
  "id": "13933",
  "name": "COMERCIAL FONT GAS, S.L.",
  "address": "Passeig Guayaquil, 37",
  "city": "Barcelona",
  "province": "Barcelona",
  "postal_code": "08030",
  "phone": "935212400",
  "web": null,
  "lat": 41.444941,
  "lon": 2.204449,
  "exposition": false,
  "category": "Sin exposición"
 },
 {
  "id": "13935",
  "name": "COMERCIAL PERALBA",
  "address": "Calle Camí de la Garreta, 81 - Polígono Industrial la Valldan",
  "city": "Berga",
  "province": "Barcelona",
  "postal_code": "08600",
  "phone": "938211452",
  "web": null,
  "lat": 42.094945,
  "lon": 1.824043,
  "exposition": false,
  "category": "Sin exposición"
 },
 {
  "id": "13937",
  "name": "COMERCIAL PERALBA",
  "address": "Calle Alemanya, 33 - Polígono Industrial Les Comes",
  "city": "Igualada",
  "province": "Barcelona",
  "postal_code": "08700",
  "phone": "938054995",
  "web": null,
  "lat": 41.586825,
  "lon": 1.630386,
  "exposition": false,
  "category": "Sin exposición"
 },
 {
  "id": "13938",
  "name": "COMERCIAL PERALBA",
  "address": "Carretera Vic, 281 - Polígono Industrial Els Dolors",
  "city": "Manresa",
  "province": "Barcelona",
  "postal_code": "08243",
  "phone": "938776480",
  "web": null,
  "lat": 41.736214,
  "lon": 1.844732,
  "exposition": true,
  "category": "Con exposición"
 },
 {
  "id": "13939",
  "name": "COMERCIAL PERALBA",
  "address": "Avenida del Valles, 149",
  "city": "Terrassa",
  "province": "Barcelona",
  "postal_code": "08223",
  "phone": "937869697",
  "web": null,
  "lat": 41.551342,
  "lon": 2.038179,
  "exposition": true,
  "category": "Con exposición"
 },
 {
  "id": "13940",
  "name": "COMERCIAL PERALBA",
  "address": "Carretera De Manlleu, 43 - Polígono Industrial Mas Beuló",
  "city": "Vic",
  "province": "Barcelona",
  "postal_code": "08500",
  "phone": "938860452",
  "web": null,
  "lat": 41.943122,
  "lon": 2.256938,
  "exposition": true,
  "category": "Con exposición"
 },
 {
  "id": "13941",
  "name": "COMERCIAL SARIEGO, S.L.",
  "address": "Polígono Espíritu Santo, 36",
  "city": "Oviedo",
  "province": "Asturias",
  "postal_code": "33010",
  "phone": "985791353",
  "web": null,
  "lat": 43.374594,
  "lon": -5.809478,
  "exposition": true,
  "category": "Con exposición"
 },
 {
  "id": "13943",
  "name": "COMERCIAL SARIEGO, S.L.",
  "address": "Calle Fermín Canella, 6",
  "city": "Gijón",
  "province": "Asturias",
  "postal_code": "33207",
  "phone": "985356941",
  "web": null,
  "lat": 43.539796,
  "lon": -5.669237,
  "exposition": true,
  "category": "Con exposición"
 },
 {
  "id": "13945",
  "name": "CONFORT Y SANITARIOS. S.L",
  "address": "Avenida Amanecer de España, 27",
  "city": "Jávea",
  "province": "Alicante",
  "postal_code": "03730",
  "phone": "965792662",
  "web": null,
  "lat": 38.789393,
  "lon": 0.16875,
  "exposition": true,
  "category": "Con exposición"
 },
 {
  "id": "13947",
  "name": "CONFORT Y SANITARIOS. S.L",
  "address": "Avenida Del Plá, 115",
  "city": "Jávea",
  "province": "Alicante",
  "postal_code": "03730",
  "phone": "966460066",
  "web": null,
  "lat": 38.789343,
  "lon": 0.172406,
  "exposition": true,
  "category": "Con exposición"
 },
 {
  "id": "13949",
  "name": "IXOS CONMASA",
  "address": "Calle Miramar, 15",
  "city": "Premià de Dalt",
  "province": "Barcelona",
  "postal_code": "08338",
  "phone": "937523828",
  "web": null,
  "lat": 41.501607,
  "lon": 2.35896,
  "exposition": true,
  "category": "Con exposición"
 },
 {
  "id": "13950",
  "name": "IXOS Conmasa Banyoles",
  "address": "Calle Mare de Déu del Mont, 1",
  "city": "Porqueres",
  "province": "Girona",
  "postal_code": "17834",
  "phone": "972571729",
  "web": null,
  "lat": 42.10222,
  "lon": 2.78885,
  "exposition": true,
  "category": "Con exposición"
 },
 {
  "id": "13951",
  "name": "IXOS CONMASA",
  "address": "Calle Plastic, 24 - Polígono Industrial Les Guixeres",
  "city": "Badalona",
  "province": "Barcelona",
  "postal_code": "08915",
  "phone": "934970184",
  "web": null,
  "lat": 41.462827,
  "lon": 2.254599,
  "exposition": false,
  "category": "Sin exposición"
 },
 {
  "id": "13952",
  "name": "IXOS CONMASA",
  "address": "Calle Viladomat, 112",
  "city": "Barcelona",
  "province": "Barcelona",
  "postal_code": "08015",
  "phone": "934544909",
  "web": null,
  "lat": 41.379981,
  "lon": 2.1571,
  "exposition": false,
  "category": "Sin exposición"
 },
 {
  "id": "13953",
  "name": "IXOS CONMASA",
  "address": "Calle Pablo Iglesias, Local 1 - Polígono Industrial Pla d´en Boet",
  "city": "Mataró",
  "province": "Barcelona",
  "postal_code": "08302",
  "phone": "937989471",
  "web": null,
  "lat": 41.53369,
  "lon": 2.430253,
  "exposition": false,
  "category": "Sin exposición"
 },
 {
  "id": "13954",
  "name": "IXOS CONMASA",
  "address": "Calle Anoia, S/N - Polígono Industrial Mas Roger",
  "city": "Pineda de Mar",
  "province": "Barcelona",
  "postal_code": "08397",
  "phone": "937695401",
  "web": null,
  "lat": 41.623841,
  "lon": 2.669445,
  "exposition": true,
  "category": "Con exposición"
 },
 {
  "id": "13955",
  "name": "IXOS CONMASA",
  "address": "Calle Doedes, 1-B Local",
  "city": "Arenys de Mar",
  "province": "Barcelona",
  "postal_code": "08350",
  "phone": "937925750",
  "web": null,
  "lat": 41.586021,
  "lon": 2.544129,
  "exposition": false,
  "category": "Sin exposición"
 },
 {
  "id": "13956",
  "name": "IXOS CONMASA",
  "address": "Calle De l´Aigua, 117",
  "city": "Vilanova i la Geltrú",
  "province": "Barcelona",
  "postal_code": "08800",
  "phone": "938148501",
  "web": null,
  "lat": 41.224084,
  "lon": 1.718542,
  "exposition": false,
  "category": "Sin exposición"
 },
 {
  "id": "13957",
  "name": "IXOS Conmasa El Vendrell",
  "address": "Calle Masia del Furó, 23",
  "city": "Bellvei del Penedès",
  "province": "Tarragona",
  "postal_code": "43719",
  "phone": "977667981",
  "web": null,
  "lat": 41.229871,
  "lon": 1.549881,
  "exposition": false,
  "category": "Sin exposición"
 },
 {
  "id": "13958",
  "name": "IXOS Conmasa Figueres",
  "address": "C/ De la Duana, 1-7",
  "city": "Figueres",
  "province": "Girona",
  "postal_code": "17600",
  "phone": "972506850",
  "web": null,
  "lat": 42.267333,
  "lon": 2.991299,
  "exposition": false,
  "category": "Sin exposición"
 },
 {
  "id": "13959",
  "name": "CONSTRUDECO NORTE",
  "address": "Calle Perdouro, S/N",
  "city": "Burela",
  "province": "Asturias",
  "postal_code": "33750",
  "phone": "982585534",
  "web": null,
  "lat": 43.645702,
  "lon": -7.349883,
  "exposition": true,
  "category": "Con exposición"
 },
 {
  "id": "13961",
  "name": "CONSTRUDECO NORTE",
  "address": "Calle Novales, S/N",
  "city": "La Caridad",
  "province": "Asturias",
  "postal_code": "33750",
  "phone": "985637703",
  "web": null,
  "lat": 43.554877,
  "lon": -6.843444,
  "exposition": true,
  "category": "Con exposición"
 },
 {
  "id": "13963",
  "name": "CONSTRUDECO NORTE",
  "address": "Calle Misericordia, 50",
  "city": "Viveiro",
  "province": "Lugo",
  "postal_code": "27850",
  "phone": "982570014",
  "web": null,
  "lat": 43.666336,
  "lon": -7.601453,
  "exposition": false,
  "category": "Sin exposición"
 },
 {
  "id": "13965",
  "name": "CONSTRUMAT VALL DE UXO, S.L.",
  "address": "Polígono Industrial la Vernicha, 2",
  "city": "Vall d'Uixó",
  "province": "Castellón",
  "postal_code": "12600",
  "phone": "964660450",
  "web": null,
  "lat": 39.813302,
  "lon": -0.230915,
  "exposition": true,
  "category": "Con exposición"
 },
 {
  "id": "13967",
  "name": "COYSA SANITARIOS, S.L.",
  "address": "Calle Puerto de la Morcuera, 7 - Polígono Industrial Prado Overa",
  "city": "Leganés",
  "province": "Madrid",
  "postal_code": "28919",
  "phone": "914282240",
  "web": null,
  "lat": 40.351861,
  "lon": -3.724032,
  "exposition": true,
  "category": "Con exposición"
 },
 {
  "id": "13972",
  "name": "COYSA SANITARIOS, S.L.",
  "address": "Calle Cavanilles, 45",
  "city": "Madrid",
  "province": "Madrid",
  "postal_code": "28007",
  "phone": "914333991",
  "web": null,
  "lat": 40.404836,
  "lon": -3.673152,
  "exposition": true,
  "category": "Con exposición"
 },
 {
  "id": "13974",
  "name": "COYSA SANITARIOS, S.L.",
  "address": "Calle Rio Marches, S/N - Parc 76 - Polígono Industrial Autovía Toledo-Ocaña",
  "city": "Toledo",
  "province": "Toledo",
  "postal_code": "45007",
  "phone": "925245442",
  "web": null,
  "lat": 39.866888,
  "lon": -3.959721,
  "exposition": true,
  "category": "Con exposición"
 },
 {
  "id": "13981",
  "name": "CRISTAL. Y SANIT. FORN, S.A.",
  "address": "Carretera Cardona, 11",
  "city": "Manresa",
  "province": "Barcelona",
  "postal_code": "08240",
  "phone": "938723300",
  "web": null,
  "lat": 41.725389,
  "lon": 1.822215,
  "exposition": true,
  "category": "Con exposición"
 },
 {
  "id": "13986",
  "name": "SINELEC CALABRIA, S.L.",
  "address": "Calle Calabria, 27",
  "city": "Barcelona",
  "province": "Barcelona",
  "postal_code": "08015",
  "phone": "934 310 701",
  "web": null,
  "lat": 41.376347,
  "lon": 2.159297,
  "exposition": false,
  "category": "Sin exposición"
 },
 {
  "id": "13988",
  "name": "SINELEC CIUTADELLA, S.L.",
  "address": "Calle Ausiàs March, 83",
  "city": "Barcelona",
  "province": "Barcelona",
  "postal_code": "08013",
  "phone": "932444624",
  "web": null,
  "lat": 41.394648,
  "lon": 2.179667,
  "exposition": true,
  "category": "Con exposición"
 },
 {
  "id": "13992",
  "name": "DEUSTO-ESKERDUZA, S.L.",
  "address": "Calle Julio Urkijo, 8-11",
  "city": "Bilbao",
  "province": "Bizkaia",
  "postal_code": "48014",
  "phone": "944471950",
  "web": null,
  "lat": 43.270319,
  "lon": -2.952957,
  "exposition": true,
  "category": "Con exposición"
 },
 {
  "id": "13993",
  "name": "DEUSTO-ESKERDUZA, S.L.",
  "address": "Carretera Bilbao Plentzia, 40",
  "city": "Erandio",
  "province": "Bizkaia",
  "postal_code": "48950",
  "phone": "944472196",
  "web": null,
  "lat": 43.30244,
  "lon": -2.94714,
  "exposition": true,
  "category": "Con exposición"
 },
 {
  "id": "13994",
  "name": "DOMINGO AZPIRI, S.A.",
  "address": "Calle Astola Bidea, 14",
  "city": "Durango",
  "province": "Bizkaia",
  "postal_code": "48200",
  "phone": "946813054",
  "web": null,
  "lat": 43.16555,
  "lon": -2.61981,
  "exposition": true,
  "category": "Con exposición"
 },
 {
  "id": "13996",
  "name": "DISTRIPLAC",
  "address": "Ronda Europa, 72 - Polígono Industrial Sta. Magdalena",
  "city": "Vilanova i la Geltrú",
  "province": "Barcelona",
  "postal_code": "08800",
  "phone": "938142273",
  "web": null,
  "lat": 41.233814,
  "lon": 1.73511,
  "exposition": true,
  "category": "Con exposición"
 },
 {
  "id": "13997",
  "name": "DP MATERIALS",
  "address": "Carretera Vall d'Aran, KM 3,8",
  "city": "Lleida",
  "province": "Lleida",
  "postal_code": "25196",
  "phone": "973237448",
  "web": null,
  "lat": 41.638979,
  "lon": 0.620642,
  "exposition": true,
  "category": "Con exposición"
 },
 {
  "id": "13998",
  "name": "DP MATERIALS",
  "address": "Avenida de la Pau, 22",
  "city": "Mollerussa",
  "province": "Lleida",
  "postal_code": "25230",
  "phone": "973600906",
  "web": null,
  "lat": 41.627903,
  "lon": 0.899272,
  "exposition": true,
  "category": "Con exposición"
 },
 {
  "id": "13999",
  "name": "LA PLATAFORMA DE LA CONSTRUCCION",
  "address": "Carretera Cogullada, 19 - Polígono Cogullada",
  "city": "Zaragoza",
  "province": "Zaragoza",
  "postal_code": "50014",
  "phone": "976189700",
  "web": null,
  "lat": 41.672483,
  "lon": -0.859039,
  "exposition": true,
  "category": "Con exposición"
 },
 {
  "id": "14000",
  "name": "DP MATERIALS",
  "address": "Calle Albert Einstein, 25 - Polígono Industrial Almeda",
  "city": "Cornellà de Llobregat",
  "province": "Barcelona",
  "postal_code": "08940",
  "phone": "933745974",
  "web": null,
  "lat": 41.351386,
  "lon": 2.08084,
  "exposition": false,
  "category": "Sin exposición"
 },
 {
  "id": "14001",
  "name": "Distriplac Maçanet de la Selva",
  "address": "Passatge Industrial, 35",
  "city": "Maçanet de la Selva",
  "province": "Girona",
  "postal_code": "17412",
  "phone": "972858125",
  "web": null,
  "lat": 41.780902,
  "lon": 2.742508,
  "exposition": true,
  "category": "Con exposición"
 },
 {
  "id": "14002",
  "name": "DP MATERIALS",
  "address": "Carretera D´Anglès - Cruilla Autopista AP-7",
  "city": "Salt",
  "province": "Girona",
  "postal_code": "17190",
  "phone": "972249009",
  "web": null,
  "lat": 41.970977,
  "lon": 2.777155,
  "exposition": true,
  "category": "Con exposición"
 },
 {
  "id": "14003",
  "name": "IXOS Ebrequalitat Amposta",
  "address": "Eix de l'Ebre Km. 0 - Polígono industrial Oriola",
  "city": "Amposta",
  "province": "Tarragona",
  "postal_code": "43870",
  "phone": "977707046",
  "web": null,
  "lat": 40.695889,
  "lon": 0.579538,
  "exposition": true,
  "category": "Con exposición"
 },
 {
  "id": "14004",
  "name": "IXOS Ebrequalitat Tortosa",
  "address": "Calle Ciutadella, 12",
  "city": "Tortosa",
  "province": "Tarragona",
  "postal_code": "43500",
  "phone": "977442945",
  "web": null,
  "lat": 40.803872,
  "lon": 0.519373,
  "exposition": false,
  "category": "Sin exposición"
 },
 {
  "id": "14005",
  "name": "IXOS Ebrequalitat Mora",
  "address": "Avenida Generalitat, 23",
  "city": "Mora d'Ebre",
  "province": "Tarragona",
  "postal_code": "43740",
  "phone": "977414108",
  "web": null,
  "lat": 41.087216,
  "lon": 0.632116,
  "exposition": false,
  "category": "Sin exposición"
 },
 {
  "id": "14008",
  "name": "SEGUÍ CLIMA, S.L.",
  "address": "Polígono Industrial Les Canals, 1",
  "city": "Lleida",
  "province": "Lleida",
  "postal_code": "25190",
  "phone": "973213555",
  "web": null,
  "lat": 41.619347,
  "lon": 0.676973,
  "exposition": false,
  "category": "Sin exposición"
 },
 {
  "id": "14011",
  "name": "EL CORTE INGLÉS, S.A.",
  "address": "Avenida Federico Soto, 1-3",
  "city": "Alicante",
  "province": "Alicante",
  "postal_code": "03003",
  "phone": "965925001",
  "web": null,
  "lat": 38.343819,
  "lon": -0.489437,
  "exposition": true,
  "category": "Con exposición"
 },
 {
  "id": "14012",
  "name": "EL CORTE INGLÉS, S.A.",
  "address": "Plaza Cataluña, 14",
  "city": "Barcelona",
  "province": "Barcelona",
  "postal_code": "08002",
  "phone": "933063800",
  "web": null,
  "lat": 41.387638,
  "lon": 2.171023,
  "exposition": true,
  "category": "Con exposición"
 },
 {
  "id": "14014",
  "name": "EL CORTE INGLÉS, S.A.",
  "address": "Calle Goya, 85",
  "city": "Madrid",
  "province": "Madrid",
  "postal_code": "28009",
  "phone": "914329300",
  "web": "https://www.elcorteingles.es",
  "lat": 40.424737,
  "lon": -3.673907,
  "exposition": true,
  "category": "Con exposición"
 },
 {
  "id": "14016",
  "name": "EL CORTE INGLÉS, S.A.",
  "address": "Calle Gran Via, 9",
  "city": "Bilbao",
  "province": "Bizkaia",
  "postal_code": "48001",
  "phone": "944253500",
  "web": null,
  "lat": 43.261711,
  "lon": -2.9291,
  "exposition": true,
  "category": "Con exposición"
 },
 {
  "id": "14017",
  "name": "EL CORTE INGLÉS, S.A.",
  "address": "Paseo de la Castellana, 85",
  "city": "Madrid",
  "province": "Madrid",
  "postal_code": "28003",
  "phone": "914188800",
  "web": "https://www.elcorteingles.es",
  "lat": 40.448374,
  "lon": -3.69196,
  "exposition": true,
  "category": "Con exposición"
 },
 {
  "id": "14018",
  "name": "EL CORTE INGLÉS, S.A.",
  "address": "Avenida Diagonal, 617",
  "city": "Barcelona",
  "province": "Barcelona",
  "postal_code": "08028",
  "phone": "934192828",
  "web": null,
  "lat": 41.387801,
  "lon": 2.128039,
  "exposition": true,
  "category": "Con exposición"
 },
 {
  "id": "14020",
  "name": "EL CORTE INGLÉS, S.A.",
  "address": "Paseo Sagasta, 13",
  "city": "Zaragoza",
  "province": "Zaragoza",
  "postal_code": "50008",
  "phone": "976211121",
  "web": null,
  "lat": 41.643329,
  "lon": -0.885802,
  "exposition": true,
  "category": "Con exposición"
 },
 {
  "id": "14021",
  "name": "EL CORTE INGLÉS, S.A.",
  "address": "Avenida Menendez Pidal, 15",
  "city": "Valencia",
  "province": "Valencia",
  "postal_code": "46009",
  "phone": "963474142",
  "web": null,
  "lat": 39.47969,
  "lon": -0.389315,
  "exposition": true,
  "category": "Con exposición"
 },
 {
  "id": "14023",
  "name": "EL CORTE INGLÉS, S.A.",
  "address": "Calle Luis Montoto, 122",
  "city": "Sevilla",
  "province": "Sevilla",
  "postal_code": "41005",
  "phone": "954571440",
  "web": null,
  "lat": 37.38662,
  "lon": -5.97159,
  "exposition": true,
  "category": "Con exposición"
 },
 {
  "id": "14024",
  "name": "EL CORTE INGLÉS, S.A.",
  "address": "Calle Ramón y Cajal, 57-59",
  "city": "A Coruña",
  "province": "A Coruña",
  "postal_code": "15006",
  "phone": "981189400",
  "web": null,
  "lat": 43.354236,
  "lon": -8.402794,
  "exposition": true,
  "category": "Con exposición"
 },
 {
  "id": "14026",
  "name": "EL CORTE INGLÉS, S.A.",
  "address": "Avenida D´Alexandre Rosello, 12-16",
  "city": "Palma de Mallorca",
  "province": "Illes Balears",
  "postal_code": "07002",
  "phone": "971770177",
  "web": null,
  "lat": 39.573231,
  "lon": 2.656562,
  "exposition": true,
  "category": "Con exposición"
 },
 {
  "id": "14027",
  "name": "EL CORTE INGLÉS, S.A.",
  "address": "CC Pozuelo Carretera, N-VI, Km. 12.500",
  "city": "Pozuelo",
  "province": "Madrid",
  "postal_code": "28224",
  "phone": "913077759",
  "web": null,
  "lat": 40.46285,
  "lon": -3.808126,
  "exposition": true,
  "category": "Con exposición"
 },
 {
  "id": "14029",
  "name": "EL CORTE INGLÉS, S.A.",
  "address": "Plaza Callao,  2",
  "city": "Madrid",
  "province": "Madrid",
  "postal_code": "28013",
  "phone": "913798000",
  "web": null,
  "lat": 40.419881,
  "lon": -3.705457,
  "exposition": true,
  "category": "Con exposición"
 },
 {
  "id": "14031",
  "name": "EL CORTE INGLÉS, S.A.",
  "address": "Carretera de Cartama, km2",
  "city": "Málaga",
  "province": "Málaga",
  "postal_code": "29006",
  "phone": null,
  "web": null,
  "lat": 36.709494,
  "lon": -4.461194,
  "exposition": true,
  "category": "Con exposición"
 },
 {
  "id": "14032",
  "name": "EL CORTE INGLÉS, S.A.",
  "address": "Avenida Jose Mesa y Lopez, 18",
  "city": "Las Palmas de Gran Canaria",
  "province": "Las Palmas",
  "postal_code": "35006",
  "phone": "928263000",
  "web": null,
  "lat": 28.13537,
  "lon": -15.43174,
  "exposition": true,
  "category": "Con exposición"
 },
 {
  "id": "14033",
  "name": "EL CORTE INGLÉS, S.A.",
  "address": "Calle San Pablo, 1",
  "city": "Sevilla",
  "province": "Sevilla",
  "postal_code": "41002",
  "phone": "954597010",
  "web": null,
  "lat": 37.390451,
  "lon": -5.996933,
  "exposition": true,
  "category": "Con exposición"
 },
 {
  "id": "14034",
  "name": "EL CORTE INGLÉS, S.A.",
  "address": "Calle Colón, 27",
  "city": "Valencia",
  "province": "Valencia",
  "postal_code": "46002",
  "phone": "963159500",
  "web": null,
  "lat": 39.469409,
  "lon": -0.371828,
  "exposition": true,
  "category": "Con exposición"
 },
 {
  "id": "14036",
  "name": "EL CORTE INGLÉS, S.A.",
  "address": "Avenida de la Libertad, 1",
  "city": "Murcia",
  "province": "Murcia",
  "postal_code": "30009",
  "phone": "968298050",
  "web": null,
  "lat": 37.989401,
  "lon": -1.133653,
  "exposition": true,
  "category": "Con exposición"
 },
 {
  "id": "14038",
  "name": "EL CORTE INGLÉS, S.A.",
  "address": "Calle Princesa , 41",
  "city": "Madrid",
  "province": "Madrid",
  "postal_code": "28008",
  "phone": "914546000",
  "web": "https://www.elcorteingles.es",
  "lat": 40.42872,
  "lon": -3.71574,
  "exposition": true,
  "category": "Con exposición"
 },
 {
  "id": "14040",
  "name": "EL CORTE INGLÉS, S.A.",
  "address": "Calle Gran Via, 2",
  "city": "Vigo",
  "province": "Pontevedra",
  "postal_code": "36204",
  "phone": "986415111",
  "web": null,
  "lat": 42.234358,
  "lon": -8.716892,
  "exposition": true,
  "category": "Con exposición"
 },
 {
  "id": "14041",
  "name": "EL CORTE INGLÉS, S.A.",
  "address": "Avenida de Andalucia, 4-6",
  "city": "Málaga",
  "province": "Málaga",
  "postal_code": "29007",
  "phone": "952076500",
  "web": null,
  "lat": 36.717243,
  "lon": -4.428618,
  "exposition": true,
  "category": "Con exposición"
 },
 {
  "id": "14042",
  "name": "EL CORTE INGLÉS, S.A.",
  "address": "Paseo Zorrilla, 130",
  "city": "Valladolid",
  "province": "Valladolid",
  "postal_code": "47006",
  "phone": "983231500",
  "web": null,
  "lat": 41.637256,
  "lon": -4.740123,
  "exposition": true,
  "category": "Con exposición"
 },
 {
  "id": "14044",
  "name": "EL CORTE INGLÉS, S.A.",
  "address": "Avenida Francesc Maciago, 60",
  "city": "Sabadell",
  "province": "Barcelona",
  "postal_code": "08206",
  "phone": "937284800",
  "web": null,
  "lat": 41.554412,
  "lon": 2.0985,
  "exposition": true,
  "category": "Con exposición"
 },
 {
  "id": "14046",
  "name": "EL CORTE INGLÉS, S.A.",
  "address": "Calle Fray Luis de Leon, 21",
  "city": "León",
  "province": "León",
  "postal_code": "24005",
  "phone": "987263100",
  "web": null,
  "lat": 42.589387,
  "lon": -5.568576,
  "exposition": true,
  "category": "Con exposición"
 },
 {
  "id": "14048",
  "name": "EL CORTE INGLÉS, S.A.",
  "address": "Boulevard Alfonso de Hohenlohe, 2",
  "city": "Marbella",
  "province": "Málaga",
  "postal_code": "29600",
  "phone": "952902390",
  "web": null,
  "lat": 36.504869,
  "lon": -4.924852,
  "exposition": true,
  "category": "Con exposición"
 },
 {
  "id": "14049",
  "name": "EL CORTE INGLÉS, S.A.",
  "address": "Calle Alameda de San Anton, 52",
  "city": "Cartagena",
  "province": "Murcia",
  "postal_code": "30205",
  "phone": "968333900",
  "web": null,
  "lat": 37.61402,
  "lon": -0.99379,
  "exposition": true,
  "category": "Con exposición"
 },
 {
  "id": "14051",
  "name": "EL CORTE INGLÉS, S.A.",
  "address": "Carretera de Grado, S/N",
  "city": "Avilés",
  "province": "Asturias",
  "postal_code": "33400",
  "phone": "985129400",
  "web": null,
  "lat": 43.543742,
  "lon": -5.9345,
  "exposition": true,
  "category": "Con exposición"
 },
 {
  "id": "14052",
  "name": "EL CORTE INGLÉS, S.A.",
  "address": "Calle Pintor Maella, 37",
  "city": "Valencia",
  "province": "Valencia",
  "postal_code": "46023",
  "phone": "963350500",
  "web": null,
  "lat": 39.456947,
  "lon": -0.347138,
  "exposition": true,
  "category": "Con exposición"
 },
 {
  "id": "14054",
  "name": "EL CORTE INGLÉS, S.A.",
  "address": "Calle Margarita de Parma, 1; km 12 NI",
  "city": "Madrid",
  "province": "Madrid",
  "postal_code": "28050",
  "phone": "913848200",
  "web": null,
  "lat": 40.49766,
  "lon": -3.661044,
  "exposition": true,
  "category": "Con exposición"
 },
 {
  "id": "14056",
  "name": "EL CORTE INGLÉS, S.A.",
  "address": "Carretera de Extremadura. Km 12.500",
  "city": "Alcorcón",
  "province": "Madrid",
  "postal_code": "28925",
  "phone": "916496500",
  "web": null,
  "lat": 40.35815,
  "lon": -3.814992,
  "exposition": true,
  "category": "Con exposición"
 },
 {
  "id": "14057",
  "name": "EL CORTE INGLÉS, S.A.",
  "address": "Calle Ramón Areces, 2",
  "city": "Gijón",
  "province": "Asturias",
  "postal_code": "33211",
  "phone": "985990074",
  "web": null,
  "lat": 43.524135,
  "lon": -5.67876,
  "exposition": true,
  "category": "Con exposición"
 },
 {
  "id": "14059",
  "name": "EL CORTE INGLÉS, S.A.",
  "address": "Calle Retama, 8",
  "city": "Madrid",
  "province": "Madrid",
  "postal_code": "28045",
  "phone": "914688000",
  "web": null,
  "lat": 40.394455,
  "lon": -3.676027,
  "exposition": true,
  "category": "Con exposición"
 },
 {
  "id": "14061",
  "name": "EL CORTE INGLÉS, S.A.",
  "address": "Avenida Poeta María Zambrano, 35",
  "city": "Zaragoza",
  "province": "Zaragoza",
  "postal_code": "50018",
  "phone": "976728900",
  "web": null,
  "lat": 41.670659,
  "lon": -0.889786,
  "exposition": true,
  "category": "Con exposición"
 },
 {
  "id": "14062",
  "name": "EL CORTE INGLÉS, S.A.",
  "address": "Avenida Conquistadores, S/N",
  "city": "Badajoz",
  "province": "Badajoz",
  "postal_code": "06002",
  "phone": "924213300",
  "web": null,
  "lat": 38.873197,
  "lon": -6.974988,
  "exposition": true,
  "category": "Con exposición"
 },
 {
  "id": "14064",
  "name": "EL CORTE INGLÉS, S.A.",
  "address": "Paseo de las Mimosas, 1",
  "city": "El Ejido",
  "province": "Almería",
  "postal_code": "04700",
  "phone": null,
  "web": null,
  "lat": 36.77249,
  "lon": -2.80525,
  "exposition": true,
  "category": "Con exposición"
 },
 {
  "id": "14065",
  "name": "EL CORTE INGLÉS, S.A.",
  "address": "Calle Ego Gain, 7",
  "city": "Eibar",
  "province": "Gipuzkoa",
  "postal_code": "20600",
  "phone": "943708800",
  "web": null,
  "lat": 43.183947,
  "lon": -2.474863,
  "exposition": true,
  "category": "Con exposición"
 },
 {
  "id": "14066",
  "name": "EL CORTE INGLÉS, S.A.",
  "address": "Avenida Severo Ochoa, S/N - Esquina Ronda Universidad, S/N",
  "city": "Murcia",
  "province": "Murcia",
  "postal_code": "30100",
  "phone": "968279120",
  "web": null,
  "lat": 38.017622,
  "lon": -1.163435,
  "exposition": true,
  "category": "Con exposición"
 },
 {
  "id": "14067",
  "name": "EL CORTE INGLÉS, S.A.",
  "address": "Calle María Auxiliadora, 71-85",
  "city": "Salamanca",
  "province": "Salamanca",
  "postal_code": "37004",
  "phone": "923285550",
  "web": null,
  "lat": 40.973721,
  "lon": -5.656722,
  "exposition": true,
  "category": "Con exposición"
 },
 {
  "id": "14069",
  "name": "EL CORTE INGLÉS, S.A.",
  "address": "Calle Ramón Areces, S/N - Puerto Banús",
  "city": "Marbella",
  "province": "Málaga",
  "postal_code": "29660",
  "phone": "952909990",
  "web": null,
  "lat": 36.490951,
  "lon": -4.952077,
  "exposition": true,
  "category": "Con exposición"
 },
 {
  "id": "14070",
  "name": "EL CORTE INGLÉS, S.A.",
  "address": "Paseo Juan Pérez Arriete, S/N",
  "city": "Algeciras",
  "province": "Cádiz",
  "postal_code": "11204",
  "phone": "956582800",
  "web": null,
  "lat": 36.138991,
  "lon": -5.448391,
  "exposition": true,
  "category": "Con exposición"
 },
 {
  "id": "14071",
  "name": "EL CORTE INGLÉS, S.A.",
  "address": "Avenida Comandante Juan José Ripollés, 2",
  "city": "Getafe",
  "province": "Madrid",
  "postal_code": "28907",
  "phone": "915580250",
  "web": null,
  "lat": 40.329762,
  "lon": -3.728239,
  "exposition": true,
  "category": "Con exposición"
 },
 {
  "id": "14072",
  "name": "EL CORTE INGLÉS, S.A.",
  "address": "Avenida Pío XII, 51",
  "city": "Valencia",
  "province": "Valencia",
  "postal_code": "46015",
  "phone": "963469000",
  "web": null,
  "lat": 39.48534,
  "lon": -0.39649,
  "exposition": true,
  "category": "Con exposición"
 },
 {
  "id": "14073",
  "name": "EL CORTE INGLÉS, S.A.",
  "address": "Avenida del baix vinalopo, 2",
  "city": "Elche",
  "province": "Alicante",
  "postal_code": "03204",
  "phone": "966679750",
  "web": null,
  "lat": 38.27228,
  "lon": -0.68964,
  "exposition": true,
  "category": "Con exposición"
 },
 {
  "id": "14075",
  "name": "EL CORTE INGLÉS, S.A.",
  "address": "Calle Viergen de la Cabeza, S/N",
  "city": "Jaén",
  "province": "Jaén",
  "postal_code": "23008",
  "phone": "953248200",
  "web": null,
  "lat": 37.775884,
  "lon": -3.786203,
  "exposition": true,
  "category": "Con exposición"
 },
 {
  "id": "14077",
  "name": "EL CORTE INGLÉS, S.A.",
  "address": "Avenida de España, 30",
  "city": "Albacete",
  "province": "Albacete",
  "postal_code": "02002",
  "phone": "967198400",
  "web": null,
  "lat": 38.982615,
  "lon": -1.85424,
  "exposition": true,
  "category": "Con exposición"
 },
 {
  "id": "14079",
  "name": "EL CORTE INGLÉS, S.A.",
  "address": "Calle de la Primavera, 1",
  "city": "Madrid",
  "province": "Madrid",
  "postal_code": "28914",
  "phone": "914816700",
  "web": null,
  "lat": 40.30002,
  "lon": -3.77564,
  "exposition": true,
  "category": "Con exposición"
 },
 {
  "id": "14080",
  "name": "EL CORTE INGLÉS, S.A.",
  "address": "Carretera. Sevilla-Málaga, km 1",
  "city": "Sevilla",
  "province": "Sevilla",
  "postal_code": "41020",
  "phone": "954269600",
  "web": null,
  "lat": 37.339928,
  "lon": -5.825891,
  "exposition": true,
  "category": "Con exposición"
 },
 {
  "id": "14081",
  "name": "EL CORTE INGLÉS, S.A.",
  "address": "Rambla del President Lluís Companys, 7",
  "city": "Tarragona",
  "province": "Tarragona",
  "postal_code": "43005",
  "phone": "977297300",
  "web": null,
  "lat": 41.121274,
  "lon": 1.24206,
  "exposition": true,
  "category": "Con exposición"
 },
 {
  "id": "14082",
  "name": "EL CORTE INGLÉS, S.A.",
  "address": "Carretera Baños de Arteixo, S/N - Polígono Industrial La Grela",
  "city": "A Coruña",
  "province": "A Coruña",
  "postal_code": "15008",
  "phone": "981189350",
  "web": null,
  "lat": 43.345176,
  "lon": -8.427807,
  "exposition": true,
  "category": "Con exposición"
 },
 {
  "id": "14084",
  "name": "EL CORTE INGLÉS, S.A.",
  "address": "Carretera Santa Maria de Trassierra, S/N",
  "city": "Córdoba",
  "province": "Córdoba",
  "postal_code": "14011",
  "phone": "957224949",
  "web": null,
  "lat": 37.894557,
  "lon": -4.808738,
  "exposition": true,
  "category": "Con exposición"
 },
 {
  "id": "14085",
  "name": "EL CORTE INGLÉS, S.A.",
  "address": "Calle La Paz, 2",
  "city": "Vitoria",
  "province": "Álava",
  "postal_code": "01004",
  "phone": "945266333",
  "web": null,
  "lat": 42.84476,
  "lon": -2.667875,
  "exposition": true,
  "category": "Con exposición"
 },
 {
  "id": "14086",
  "name": "EL CORTE INGLÉS, S.A.",
  "address": "Calle Arabial, 97",
  "city": "Granada",
  "province": "Granada",
  "postal_code": "18003",
  "phone": "958217600",
  "web": null,
  "lat": 37.178004,
  "lon": -3.613145,
  "exposition": true,
  "category": "Con exposición"
 },
 {
  "id": "14087",
  "name": "EL CORTE INGLÉS, S.A.",
  "address": "Calle General Elorza, 75",
  "city": "Oviedo",
  "province": "Asturias",
  "postal_code": "33002",
  "phone": "985109000",
  "web": null,
  "lat": 43.3669,
  "lon": -5.84886,
  "exposition": true,
  "category": "Con exposición"
 },
 {
  "id": "14089",
  "name": "EL CORTE INGLÉS, S.A.",
  "address": "Avenida Juan Carlos I, S/N",
  "city": "Alcalá de Henares",
  "province": "Madrid",
  "postal_code": "28806",
  "phone": "918872800",
  "web": null,
  "lat": 40.479449,
  "lon": -3.400302,
  "exposition": true,
  "category": "Con exposición"
 },
 {
  "id": "14091",
  "name": "EL CORTE INGLÉS, S.A.",
  "address": "Avenida Juan Carlos I, 1",
  "city": "Cádiz",
  "province": "Cádiz",
  "postal_code": "11011",
  "phone": "956297100",
  "web": null,
  "lat": 36.521478,
  "lon": -6.277317,
  "exposition": true,
  "category": "Con exposición"
 },
 {
  "id": "14092",
  "name": "EL CORTE INGLÉS, S.A.",
  "address": "Carretera nacional V, km 23,500",
  "city": "Madrid",
  "province": "Madrid",
  "postal_code": "28939",
  "phone": null,
  "web": null,
  "lat": 40.65687,
  "lon": -3.60262,
  "exposition": true,
  "category": "Con exposición"
 },
 {
  "id": "14093",
  "name": "EL CORTE INGLÉS, S.A.",
  "address": "Paseo de Morella, 1",
  "city": "Castellón de la Plana",
  "province": "Castellón",
  "postal_code": "12006",
  "phone": "964344150",
  "web": null,
  "lat": 39.98815,
  "lon": -0.0475,
  "exposition": true,
  "category": "Con exposición"
 },
 {
  "id": "14094",
  "name": "EL CORTE INGLÉS, S.A.",
  "address": "Paseo Andreu Nin, 51 Nou Barris",
  "city": "Barcelona",
  "province": "Barcelona",
  "postal_code": "08016",
  "phone": "932439000",
  "web": null,
  "lat": 41.436157,
  "lon": 2.181756,
  "exposition": true,
  "category": "Con exposición"
 },
 {
  "id": "14095",
  "name": "EL CORTE INGLÉS, S.A.",
  "address": "Calle Estella, 9",
  "city": "Pamplona",
  "province": "Navarra",
  "postal_code": "31002",
  "phone": "948202000",
  "web": null,
  "lat": 42.8139,
  "lon": -1.645389,
  "exposition": true,
  "category": "Con exposición"
 },
 {
  "id": "14098",
  "name": "EL CORTE INGLÉS, S.A.",
  "address": "Avenida de los Andes, 50",
  "city": "Madrid",
  "province": "Madrid",
  "postal_code": "28042",
  "phone": "913248800",
  "web": null,
  "lat": 40.456089,
  "lon": -3.617237,
  "exposition": true,
  "category": "Con exposición"
 },
 {
  "id": "14099",
  "name": "EL CORTE INGLÉS, S.A.",
  "address": "Avenida Eduardo Guitián, S/N",
  "city": "Guadalajara",
  "province": "Guadalajara",
  "postal_code": "19002",
  "phone": "949349950",
  "web": null,
  "lat": 40.622055,
  "lon": -3.165573,
  "exposition": true,
  "category": "Con exposición"
 },
 {
  "id": "14101",
  "name": "EL CORTE INGLÉS, S.A.",
  "address": "Rua do Restollal, 50",
  "city": "Santiago de Compostela",
  "province": "A Coruña",
  "postal_code": "15702",
  "phone": "981527200",
  "web": null,
  "lat": 42.86253,
  "lon": -8.54329,
  "exposition": true,
  "category": "Con exposición"
 },
 {
  "id": "14102",
  "name": "EL CORTE INGLÉS, S.A.",
  "address": "Parcela b, sector Camp de L'empedrat",
  "city": "Cornellà de Llobregat",
  "province": "Barcelona",
  "postal_code": "08940",
  "phone": "934759000",
  "web": null,
  "lat": 41.357383,
  "lon": 2.070716,
  "exposition": true,
  "category": "Con exposición"
 },
 {
  "id": "14104",
  "name": "EL CORTE INGLÉS, S.A.",
  "address": "Polígono Nueva Montaña, S/N",
  "city": "Santander",
  "province": "Cantabria",
  "postal_code": "39011",
  "phone": "942328400",
  "web": null,
  "lat": 43.437749,
  "lon": -3.840154,
  "exposition": true,
  "category": "Con exposición"
 },
 {
  "id": "14106",
  "name": "EL CORTE INGLÉS, S.A.",
  "address": "Avenida Pintor Felo Monzón, S/N",
  "city": "Las Palmas de Gran Canaria",
  "province": "Las Palmas",
  "postal_code": "35019",
  "phone": "928423000",
  "web": null,
  "lat": 28.095545,
  "lon": -15.45667,
  "exposition": true,
  "category": "Con exposición"
 },
 {
  "id": "14107",
  "name": "EL CORTE INGLÉS, S.A.",
  "address": "Avenida Tres de Mayo, 7",
  "city": "Santa Cruz de Tenerife",
  "province": "Santa Cruz de Tenerife",
  "postal_code": "38003",
  "phone": "922849400",
  "web": null,
  "lat": 28.459063,
  "lon": -16.255965,
  "exposition": true,
  "category": "Con exposición"
 },
 {
  "id": "14108",
  "name": "EMILIANO FERNANDEZ, S.L.",
  "address": "Calle Ebanistas, 5-7",
  "city": "Medina del Campo",
  "province": "Valladolid",
  "postal_code": "47400",
  "phone": "983811261",
  "web": null,
  "lat": 41.31893,
  "lon": -4.922078,
  "exposition": true,
  "category": "Con exposición"
 },
 {
  "id": "14110",
  "name": "EMILIANO FERNANDEZ, S.L.",
  "address": "Calle Ebanistas 9, Medina del Campo",
  "city": "Medina del Campo",
  "province": "Valladolid",
  "postal_code": "47400",
  "phone": "983812570",
  "web": null,
  "lat": 41.312658,
  "lon": -4.91725,
  "exposition": false,
  "category": "Sin exposición"
 },
 {
  "id": "14114",
  "name": "EMPRESA COMERCIAL ALBERT, S.A.",
  "address": "Avenida del Vino, 63",
  "city": "Valdepeñas",
  "province": "Ciudad Real",
  "postal_code": "13300",
  "phone": "926322345",
  "web": null,
  "lat": 38.780094,
  "lon": -3.390705,
  "exposition": true,
  "category": "Con exposición"
 },
 {
  "id": "14116",
  "name": "Sia Biosca - ABEX Vilafranca",
  "address": "Cubelles, 7-9",
  "city": "Vilafranca del Penedès",
  "province": "Barcelona",
  "postal_code": "08720",
  "phone": "938901611",
  "web": null,
  "lat": 41.337799,
  "lon": 1.690636,
  "exposition": true,
  "category": "Con exposición"
 },
 {
  "id": "14117",
  "name": "Sia Biosca - ABEX Vilanova",
  "address": "Ronda Europa, 69",
  "city": "Vilanova i la Geltrú",
  "province": "Barcelona",
  "postal_code": "08800",
  "phone": "938142017",
  "web": null,
  "lat": 41.23066,
  "lon": 1.736932,
  "exposition": true,
  "category": "Con exposición"
 },
 {
  "id": "14118",
  "name": "Sia Biosca - ABEX Martorell",
  "address": "Carretera Piera, 3",
  "city": "Martorell",
  "province": "Barcelona",
  "postal_code": "08760",
  "phone": "937741500",
  "web": null,
  "lat": 41.478669,
  "lon": 1.924052,
  "exposition": false,
  "category": "Sin exposición"
 },
 {
  "id": "14119",
  "name": "Sia Biosca - ABEX El Vendrell",
  "address": "Carretera de Tarragona, 10 - Nave 1",
  "city": "El Vendrell",
  "province": "Tarragona",
  "postal_code": "43700",
  "phone": "977663855",
  "web": null,
  "lat": 41.212754,
  "lon": 1.534754,
  "exposition": false,
  "category": "Sin exposición"
 },
 {
  "id": "14120",
  "name": "Sia Biosca - ABEX Sitges",
  "address": "Camí Capellans, 41",
  "city": "Sitges",
  "province": "Barcelona",
  "postal_code": "08870",
  "phone": "938110890",
  "web": null,
  "lat": 41.240565,
  "lon": 1.808447,
  "exposition": false,
  "category": "Sin exposición"
 },
 {
  "id": "14125",
  "name": "EUGENIO PEREDA, S.A.",
  "address": "Calle Severo Ochoa, 1",
  "city": "Leganés",
  "province": "Madrid",
  "postal_code": "28914",
  "phone": "916880400",
  "web": null,
  "lat": 40.323755,
  "lon": -3.755876,
  "exposition": true,
  "category": "Con exposición"
 },
 {
  "id": "14126",
  "name": "EUGENIO PEREDA, S.A.",
  "address": "Avenida Oporto, 10",
  "city": "Madrid",
  "province": "Madrid",
  "postal_code": "28019",
  "phone": "915606800",
  "web": null,
  "lat": 40.385347,
  "lon": -3.720177,
  "exposition": true,
  "category": "Con exposición"
 },
 {
  "id": "14127",
  "name": "EUGENIO PEREDA, S.A.",
  "address": "Calle Bravo Murillo, 160",
  "city": "Madrid",
  "province": "Madrid",
  "postal_code": "28020",
  "phone": "915672570",
  "web": null,
  "lat": 40.452198,
  "lon": -3.703003,
  "exposition": true,
  "category": "Con exposición"
 },
 {
  "id": "14128",
  "name": "EUROCASA SUMINISTROS",
  "address": "Avenida Neptuno, 5",
  "city": "Alicante",
  "province": "Alicante",
  "postal_code": "03007",
  "phone": "965174642",
  "web": null,
  "lat": 38.34346,
  "lon": -0.522653,
  "exposition": true,
  "category": "Con exposición"
 },
 {
  "id": "14129",
  "name": "EUROCASA SUMINISTROS",
  "address": "Avenida Miguel Hernández, 62",
  "city": "San Juan",
  "province": "Alicante",
  "postal_code": "03550",
  "phone": "965657211",
  "web": null,
  "lat": 38.402509,
  "lon": -0.427298,
  "exposition": true,
  "category": "Con exposición"
 },
 {
  "id": "14130",
  "name": "EUROCASA SUMINISTROS",
  "address": "Avenida Novelda, 251",
  "city": "Alicante",
  "province": "Alicante",
  "postal_code": "03009",
  "phone": "965127021",
  "web": null,
  "lat": 38.377564,
  "lon": -0.500141,
  "exposition": true,
  "category": "Con exposición"
 },
 {
  "id": "14131",
  "name": "FERRESANITARIO GARCIA RUIZ, S.A.",
  "address": "Avenida Mare Nostrum, 11",
  "city": "Alicante",
  "province": "Alicante",
  "postal_code": "03007",
  "phone": "965110955",
  "web": null,
  "lat": 38.34149,
  "lon": -0.523851,
  "exposition": true,
  "category": "Con exposición"
 },
 {
  "id": "14132",
  "name": "FERROLUZ S.L.",
  "address": "Avenida Artero Guirao, 224",
  "city": "San Pedro del Pinatar",
  "province": "Murcia",
  "postal_code": "30740",
  "phone": "968180100",
  "web": null,
  "lat": 37.831691,
  "lon": -0.797314,
  "exposition": true,
  "category": "Con exposición"
 },
 {
  "id": "14133",
  "name": "FERROLUZ S.L.",
  "address": "Calle Fesa, 5 - Barrio San Pio X - Polígono Industrial Cánovas",
  "city": "Murcia",
  "province": "Murcia",
  "postal_code": "30010",
  "phone": "968345593",
  "web": null,
  "lat": 37.970133,
  "lon": -1.135948,
  "exposition": false,
  "category": "Sin exposición"
 },
 {
  "id": "14134",
  "name": "FONTIA SUMINISTROS, S.L.",
  "address": "Calle Leda, 22 - Polígono Industrial Pérez Texeira",
  "city": "Málaga",
  "province": "Málaga",
  "postal_code": "29006",
  "phone": "952038080",
  "web": null,
  "lat": 36.7061,
  "lon": -4.465821,
  "exposition": false,
  "category": "Sin exposición"
 },
 {
  "id": "14135",
  "name": "GARRO, S.A.",
  "address": "Carretera Santa Creu de Calafell Km. 10,7",
  "city": "Sant Boi de Llobregat",
  "province": "Barcelona",
  "postal_code": "08830",
  "phone": "936546000",
  "web": null,
  "lat": 41.337656,
  "lon": 2.047178,
  "exposition": true,
  "category": "Con exposición"
 },
 {
  "id": "14137",
  "name": "D512, S.L.",
  "address": "Av. Diagonal, 512",
  "city": "Barcelona",
  "province": "Barcelona",
  "postal_code": "08006",
  "phone": "934235284",
  "web": null,
  "lat": 41.395397,
  "lon": 2.153427,
  "exposition": true,
  "category": "Con exposición"
 },
 {
  "id": "14139",
  "name": "GRUP. C.S.T. & BATMAR S.L.",
  "address": "Camí del tarongers, 67 - PG Nº6",
  "city": "Onteniente",
  "province": "Valencia",
  "postal_code": "46870",
  "phone": "962910214",
  "web": null,
  "lat": 38.836924,
  "lon": -0.594752,
  "exposition": true,
  "category": "Con exposición"
 },
 {
  "id": "14140",
  "name": "GRUP. C.S.T. & BATMAR S.L.",
  "address": "Polígono Industrial, 1 - Calle 1 Nave 7",
  "city": "Alzira",
  "province": "Valencia",
  "postal_code": "46600",
  "phone": "962417664",
  "web": null,
  "lat": 39.156995,
  "lon": -0.448551,
  "exposition": true,
  "category": "Con exposición"
 },
 {
  "id": "14141",
  "name": "Grupo LEIOA XXI, S.L.",
  "address": "Santi Mami Auzoa, 35",
  "city": "Leioa",
  "province": "Bizkaia",
  "postal_code": "48940",
  "phone": "944801784",
  "web": null,
  "lat": 43.322066,
  "lon": -2.974106,
  "exposition": true,
  "category": "Con exposición"
 },
 {
  "id": "14143",
  "name": "GUERIN",
  "address": "Calle Astorga, 83",
  "city": "Reus",
  "province": "Tarragona",
  "postal_code": "43205",
  "phone": "977300101",
  "web": null,
  "lat": 41.134251,
  "lon": 1.118252,
  "exposition": true,
  "category": "Con exposición"
 },
 {
  "id": "14145",
  "name": "GUERIN",
  "address": "Avenida Montserrat, 158",
  "city": "Martorell",
  "province": "Barcelona",
  "postal_code": "08760",
  "phone": "937735055",
  "web": null,
  "lat": 41.48734,
  "lon": 1.91575,
  "exposition": true,
  "category": "Con exposición"
 },
 {
  "id": "14147",
  "name": "GUERIN",
  "address": "Calle L, Naves 5-6-7 - Polígono Industrial Camí dels Frares",
  "city": "Lleida",
  "province": "Lleida",
  "postal_code": "25190",
  "phone": "973233032",
  "web": null,
  "lat": 41.615304,
  "lon": 0.679135,
  "exposition": false,
  "category": "Sin exposición"
 },
 {
  "id": "14148",
  "name": "GUERIN",
  "address": "Calle Industria, 2 - Polígono Industriual Mas Xirgu",
  "city": "Girona",
  "province": "Girona",
  "postal_code": "17003",
  "phone": "972230616",
  "web": null,
  "lat": 41.965881,
  "lon": 2.806472,
  "exposition": false,
  "category": "Sin exposición"
 },
 {
  "id": "14149",
  "name": "GUERIN",
  "address": "Avenida Europa, 25 - Polígono Industrial Pla de Baix",
  "city": "Olot",
  "province": "Girona",
  "postal_code": "17800",
  "phone": "972273230",
  "web": null,
  "lat": 42.191404,
  "lon": 2.480021,
  "exposition": false,
  "category": "Sin exposición"
 },
 {
  "id": "14150",
  "name": "GUERIN",
  "address": "Calle Carbó, 7. Nave 3 - Polígono Industrial Riu Clar",
  "city": "Tarragona",
  "province": "Tarragona",
  "postal_code": "43006",
  "phone": "977199076",
  "web": null,
  "lat": 41.136053,
  "lon": 1.214534,
  "exposition": false,
  "category": "Sin exposición"
 },
 {
  "id": "14151",
  "name": "GUERIN",
  "address": "Polígono Industrial Pla de la Estació. Parcela 2",
  "city": "Tortosa",
  "province": "Tarragona",
  "postal_code": "43520",
  "phone": "977588020",
  "web": null,
  "lat": 40.813607,
  "lon": 0.50473,
  "exposition": true,
  "category": "Con exposición"
 },
 {
  "id": "14152",
  "name": "GUERIN",
  "address": "Riera del Fonollar, 34",
  "city": "Sant Boi de Llobregat",
  "province": "Barcelona",
  "postal_code": "08830",
  "phone": "932237500",
  "web": null,
  "lat": 41.327644,
  "lon": 2.038015,
  "exposition": false,
  "category": "Sin exposición"
 },
 {
  "id": "14156",
  "name": "GUERIN",
  "address": "Calle Albert Einstein, 47   - Polígono Industrial Santa Margarida II",
  "city": "Terrassa",
  "province": "Barcelona",
  "postal_code": "08223",
  "phone": "936747976",
  "web": null,
  "lat": 41.549346,
  "lon": 2.025829,
  "exposition": false,
  "category": "Sin exposición"
 },
 {
  "id": "14158",
  "name": "GUERIN",
  "address": "Calle Sabadell, 13 - Polígono Industrial Sot dels Pradals",
  "city": "Vic",
  "province": "Barcelona",
  "postal_code": "08500",
  "phone": "938869595",
  "web": null,
  "lat": 41.942688,
  "lon": 2.251952,
  "exposition": false,
  "category": "Sin exposición"
 },
 {
  "id": "14160",
  "name": "GUERIN",
  "address": "Avenida Mestre Montaner, 29",
  "city": "Igualada",
  "province": "Barcelona",
  "postal_code": "08700",
  "phone": "938054893",
  "web": null,
  "lat": 41.590143,
  "lon": 1.613067,
  "exposition": false,
  "category": "Sin exposición"
 },
 {
  "id": "14162",
  "name": "GUERIN",
  "address": "Calle Santander, 124-126",
  "city": "Barcelona",
  "province": "Barcelona",
  "postal_code": "08030",
  "phone": "933084748",
  "web": null,
  "lat": 41.434359,
  "lon": 2.207999,
  "exposition": false,
  "category": "Sin exposición"
 },
 {
  "id": "14170",
  "name": "HISTAMAR, S.L.",
  "address": "Calle Adolfo Pérez Esquivel, S/N - Polígono industrial El Laurel (Junto al Centro Comercial Alhsur)",
  "city": "La Zubia",
  "province": "Granada",
  "postal_code": "18140",
  "phone": "958183111",
  "web": null,
  "lat": 37.130751,
  "lon": -3.58439,
  "exposition": true,
  "category": "Con exposición"
 },
 {
  "id": "14172",
  "name": "INDUS. PARA LA PESCA CANARIA, S.A. (INPESCASA)",
  "address": "Calle Rosa de la Monja, S/N",
  "city": "Puerto del Rosario",
  "province": "Las Palmas",
  "postal_code": "35612",
  "phone": "928851162",
  "web": null,
  "lat": 28.524231,
  "lon": -13.838078,
  "exposition": true,
  "category": "Con exposición"
 },
 {
  "id": "14174",
  "name": "INDUSTRIAS LEKUE, S.L.",
  "address": "Calle Tarifa, 2 - Polígono Industrial El Manchón",
  "city": "Tomares",
  "province": "Sevilla",
  "postal_code": "41940",
  "phone": "954152010",
  "web": null,
  "lat": 37.374678,
  "lon": -6.028855,
  "exposition": true,
  "category": "Con exposición"
 },
 {
  "id": "14176",
  "name": "INDUSTRIAS LEKUE, S.L.",
  "address": "Avenida de la Torrecilla, S/N",
  "city": "Córdoba",
  "province": "Córdoba",
  "postal_code": "14013",
  "phone": "957201901",
  "web": null,
  "lat": 37.853186,
  "lon": -4.797641,
  "exposition": false,
  "category": "Sin exposición"
 },
 {
  "id": "14177",
  "name": "INDUSTRIAS LEKUE, S.L.",
  "address": "Calle Ciudad de San Roque, S/N - Polígono Industrial Zona Franca",
  "city": "Cádiz",
  "province": "Cádiz",
  "postal_code": "11011",
  "phone": "956272841",
  "web": null,
  "lat": 36.498286,
  "lon": -6.26735,
  "exposition": false,
  "category": "Sin exposición"
 },
 {
  "id": "14178",
  "name": "INDUSTRIAS LEKUE, S.L.",
  "address": "Calle 9, Naves 8 y 10 - Polígono Industrial La Red-Sur",
  "city": "Alcalá de Guadaira",
  "province": "Sevilla",
  "postal_code": "41500",
  "phone": "955634292",
  "web": null,
  "lat": 37.370097,
  "lon": -5.885311,
  "exposition": false,
  "category": "Sin exposición"
 },
 {
  "id": "14179",
  "name": "J. RIVERA PROVEEDORA CONSTR. S.A.",
  "address": "Avenida de la Constitución, 47",
  "city": "Valverde del Camino",
  "province": "Huelva",
  "postal_code": "21600",
  "phone": "959550300",
  "web": null,
  "lat": 37.579146,
  "lon": -6.751594,
  "exposition": true,
  "category": "Con exposición"
 },
 {
  "id": "14181",
  "name": "J.P.M. DAL-ROS, S.L.",
  "address": "Polígono Industrial La Pedrera - Calle Lumiere, 3",
  "city": "Benissa",
  "province": "Alicante",
  "postal_code": "03720",
  "phone": "965731511",
  "web": null,
  "lat": 38.726794,
  "lon": 0.071777,
  "exposition": true,
  "category": "Con exposición"
 },
 {
  "id": "14182",
  "name": "JOSÉ MARÍA CABALLERO, S.A.",
  "address": "Carretera de Pinatar, 81",
  "city": "San Javier",
  "province": "Murcia",
  "postal_code": "30730",
  "phone": "968334088",
  "web": null,
  "lat": 37.81106,
  "lon": -0.829986,
  "exposition": true,
  "category": "Con exposición"
 },
 {
  "id": "14183",
  "name": "JOSÉ MARÍA CABALLERO, S.A.",
  "address": "Avenida Teniente Montesions, 4",
  "city": "Espinardo",
  "province": "Murcia",
  "postal_code": "30100",
  "phone": "968879760",
  "web": null,
  "lat": 38.004595,
  "lon": -1.147632,
  "exposition": true,
  "category": "Con exposición"
 },
 {
  "id": "14184",
  "name": "JOSÉ MARÍA CABALLERO, S.A.",
  "address": "Calle Amsterdam, S/N - Parc. R-99 - Polígono Industrial Cabezo Beaza",
  "city": "Cartagena",
  "province": "Murcia",
  "postal_code": "30353",
  "phone": "968527473",
  "web": null,
  "lat": 37.624779,
  "lon": -0.956715,
  "exposition": true,
  "category": "Con exposición"
 },
 {
  "id": "14185",
  "name": "JOSÉ MARÍA CABALLERO, S.A.",
  "address": "Carretera Granada, 55",
  "city": "Caravaca de la Cruz",
  "province": "Murcia",
  "postal_code": "30400",
  "phone": "968703095",
  "web": null,
  "lat": 38.095464,
  "lon": -1.867388,
  "exposition": true,
  "category": "Con exposición"
 },
 {
  "id": "14186",
  "name": "JOSE PEREZ MARTINEZ, S.L.",
  "address": "Calle Macarena, 12",
  "city": "Sevilla",
  "province": "Sevilla",
  "postal_code": "41003",
  "phone": "954371281",
  "web": null,
  "lat": 37.402702,
  "lon": -5.988249,
  "exposition": true,
  "category": "Con exposición"
 },
 {
  "id": "14188",
  "name": "JOSE PEREZ MARTINEZ, S.L.",
  "address": "Carretera de Sevilla-Brenes KM. 5,5 - Polígono Industrial El Gordillo",
  "city": "San José de la Rinconada",
  "province": "Sevilla",
  "postal_code": "41300",
  "phone": "954686255",
  "web": null,
  "lat": 37.486759,
  "lon": -5.943613,
  "exposition": false,
  "category": "Sin exposición"
 },
 {
  "id": "14189",
  "name": "JUAN MONTES HOYO, S.A.",
  "address": "Calle Marqués de Montemar, 3",
  "city": "Melilla",
  "province": "Melilla",
  "postal_code": "52006",
  "phone": "952672635",
  "web": null,
  "lat": 35.285731,
  "lon": -2.94031,
  "exposition": true,
  "category": "Con exposición"
 },
 {
  "id": "14191",
  "name": "KAFERMA, S.A.",
  "address": "Paseo San Vicente, 61",
  "city": "Valladolid",
  "province": "Valladolid",
  "postal_code": "47013",
  "phone": "983207222",
  "web": null,
  "lat": 41.642258,
  "lon": -4.719424,
  "exposition": true,
  "category": "Con exposición"
 },
 {
  "id": "14193",
  "name": "KAFERMA, S.A.",
  "address": "Paseo de San Vicente 61",
  "city": "Valladolid",
  "province": "Valladolid",
  "postal_code": "47012",
  "phone": "983397769",
  "web": null,
  "lat": 41.610107,
  "lon": -4.706411,
  "exposition": false,
  "category": "Sin exposición"
 },
 {
  "id": "14199",
  "name": "Distriplac Olot",
  "address": "Carretera de la Canya, 183",
  "city": "Olot",
  "province": "Girona",
  "postal_code": "17800",
  "phone": "972274899",
  "web": null,
  "lat": 42.200895,
  "lon": 2.497596,
  "exposition": false,
  "category": "Sin exposición"
 },
 {
  "id": "14200",
  "name": "LA PLATAFORMA DE LA CONSTRUCCION",
  "address": "Calle Fray Luis de León, 9",
  "city": "Madrid",
  "province": "Madrid",
  "postal_code": "28012",
  "phone": "915063100",
  "web": null,
  "lat": 40.4048,
  "lon": -3.698532,
  "exposition": false,
  "category": "Sin exposición"
 },
 {
  "id": "14202",
  "name": "LA PLATAFORMA DE LA CONSTRUCCION",
  "address": "Calle María Cubí i Soler, 1 - Polígono Industrial Can Llobet",
  "city": "Sant Quirze del Vallès",
  "province": "Barcelona",
  "postal_code": "08192",
  "phone": "937206400",
  "web": null,
  "lat": 41.530333,
  "lon": 2.094554,
  "exposition": true,
  "category": "Con exposición"
 },
 {
  "id": "14204",
  "name": "LA PLATAFORMA DE LA CONSTRUCCION",
  "address": "Avenida de la Marina, 33-35",
  "city": "Sant Boi de Llobregat",
  "province": "Barcelona",
  "postal_code": "08830",
  "phone": "936358900",
  "web": null,
  "lat": 41.32617,
  "lon": 2.04273,
  "exposition": false,
  "category": "Sin exposición"
 },
 {
  "id": "14206",
  "name": "LA PLATAFORMA DE LA CONSTRUCCION",
  "address": "Calle Industria, 73 - Polígono Industrial Gran Via",
  "city": "L'Hospitalet de Llobregat",
  "province": "Barcelona",
  "postal_code": "08908",
  "phone": "932895960",
  "web": null,
  "lat": 41.347364,
  "lon": 2.128307,
  "exposition": false,
  "category": "Sin exposición"
 },
 {
  "id": "14208",
  "name": "LA PLATAFORMA DE LA CONSTRUCCION",
  "address": "Avenida Eduard Maristany, 91-101",
  "city": "Sant Adrià de Besòs",
  "province": "Barcelona",
  "postal_code": "08930",
  "phone": "934627210",
  "web": null,
  "lat": 41.427012,
  "lon": 2.23127,
  "exposition": false,
  "category": "Sin exposición"
 },
 {
  "id": "14210",
  "name": "LA PLATAFORMA DE LA CONSTRUCCION",
  "address": "Calle de la Marineta, 10 - Polígono Industrial Llevant",
  "city": "Parets del Vallès",
  "province": "Barcelona",
  "postal_code": "08150",
  "phone": "935735600",
  "web": null,
  "lat": 41.57863,
  "lon": 2.250933,
  "exposition": false,
  "category": "Sin exposición"
 },
 {
  "id": "14212",
  "name": "LA PLATAFORMA DE LA CONSTRUCCION",
  "address": "Calle Foment, 1",
  "city": "Sant Just Desvern",
  "province": "Barcelona",
  "postal_code": "08960",
  "phone": "933758340",
  "web": null,
  "lat": 41.377874,
  "lon": 2.0671,
  "exposition": false,
  "category": "Sin exposición"
 },
 {
  "id": "14214",
  "name": "LA PLATAFORMA DE LA CONSTRUCCION",
  "address": "Calle Louis Pasteur, S/N",
  "city": "Alcalá de Henares",
  "province": "Madrid",
  "postal_code": "28806",
  "phone": "918772020",
  "web": null,
  "lat": 40.492465,
  "lon": -3.384744,
  "exposition": false,
  "category": "Sin exposición"
 },
 {
  "id": "14216",
  "name": "LA PLATAFORMA DE LA CONSTRUCCION",
  "address": "Calle Francisco Gervás, 8-10",
  "city": "Alcobendas",
  "province": "Madrid",
  "postal_code": "28108",
  "phone": "914904415",
  "web": null,
  "lat": 40.531958,
  "lon": -3.65119,
  "exposition": false,
  "category": "Sin exposición"
 },
 {
  "id": "14218",
  "name": "LA PLATAFORMA DE LA CONSTRUCCION",
  "address": "Avenida América, 32",
  "city": "Alcorcón",
  "province": "Madrid",
  "postal_code": "28923",
  "phone": "916211400",
  "web": null,
  "lat": 40.360154,
  "lon": -3.836603,
  "exposition": false,
  "category": "Sin exposición"
 },
 {
  "id": "14220",
  "name": "LA PLATAFORMA DE LA CONSTRUCCION",
  "address": "Calle Julián Camarillo, 17",
  "city": "Madrid",
  "province": "Madrid",
  "postal_code": "28037",
  "phone": "913757640",
  "web": null,
  "lat": 40.434587,
  "lon": -3.631029,
  "exposition": false,
  "category": "Sin exposición"
 },
 {
  "id": "14222",
  "name": "LA PLATAFORMA DE LA CONSTRUCCION",
  "address": "Avenida de Aragón 336 - Polígono Industrial Las Mercedes",
  "city": "Madrid",
  "province": "Madrid",
  "postal_code": "28022",
  "phone": "916023700",
  "web": null,
  "lat": 40.449105,
  "lon": -3.574391,
  "exposition": false,
  "category": "Sin exposición"
 },
 {
  "id": "14224",
  "name": "LA PLATAFORMA DE LA CONSTRUCCION",
  "address": "Calle Fundición, 6 - Polígono Industrial San Santa",
  "city": "Rivas-Vaciamadrid",
  "province": "Madrid",
  "postal_code": "28529",
  "phone": "914854000",
  "web": null,
  "lat": 40.350362,
  "lon": -3.53901,
  "exposition": false,
  "category": "Sin exposición"
 },
 {
  "id": "14227",
  "name": "LAGUARDIA&MOREIRA, S.A.",
  "address": "Calle Embajadores, 135",
  "city": "Madrid",
  "province": "Madrid",
  "postal_code": "28045",
  "phone": "915064200",
  "web": null,
  "lat": 40.397113,
  "lon": -3.696479,
  "exposition": true,
  "category": "Con exposición"
 },
 {
  "id": "14229",
  "name": "LAGUARDIA&MOREIRA, S.A.",
  "address": "Carretera de Barcelona Km 34,200",
  "city": "Alcalá de Henares",
  "province": "Madrid",
  "postal_code": "28802",
  "phone": "918883400",
  "web": null,
  "lat": 40.505951,
  "lon": -3.328366,
  "exposition": true,
  "category": "Con exposición"
 },
 {
  "id": "14231",
  "name": "LAGUARDIA&MOREIRA, S.A.",
  "address": "Calle Ríos Rosas, 9",
  "city": "Madrid",
  "province": "Madrid",
  "postal_code": "28003",
  "phone": "913991004",
  "web": null,
  "lat": 40.44221,
  "lon": -3.702804,
  "exposition": true,
  "category": "Con exposición"
 },
 {
  "id": "14233",
  "name": "LAGUARDIA&MOREIRA, S.A.",
  "address": "Calle Palomar, 4",
  "city": "A Coruña",
  "province": "A Coruña",
  "postal_code": "15004",
  "phone": "981250550",
  "web": null,
  "lat": 43.36376,
  "lon": -8.41084,
  "exposition": true,
  "category": "Con exposición"
 },
 {
  "id": "14235",
  "name": "LAGUARDIA&MOREIRA, S.A.",
  "address": "Avenida La Florida, 62",
  "city": "Vigo",
  "province": "Pontevedra",
  "postal_code": "36210",
  "phone": "986213400",
  "web": null,
  "lat": 42.215077,
  "lon": -8.741135,
  "exposition": true,
  "category": "Con exposición"
 },
 {
  "id": "14237",
  "name": "LAGUARDIA&MOREIRA, S.A.",
  "address": "Calle 5a Avenida, 25 - PO.CO.MA.CO",
  "city": "A Coruña",
  "province": "A Coruña",
  "postal_code": "15190",
  "phone": "981175441",
  "web": null,
  "lat": 43.328282,
  "lon": -8.439825,
  "exposition": false,
  "category": "Sin exposición"
 },
 {
  "id": "14238",
  "name": "LAGUARDIA&MOREIRA, S.A.",
  "address": "Carretera Camposancos, 48-int.",
  "city": "Vigo",
  "province": "Pontevedra",
  "postal_code": "36213",
  "phone": "986233476",
  "web": null,
  "lat": 42.202302,
  "lon": -8.757195,
  "exposition": false,
  "category": "Sin exposición"
 },
 {
  "id": "14239",
  "name": "LANDINO BERMAN, S.A.",
  "address": "Avenida Cap de Cavalleria, 22 – Poima",
  "city": "Maó",
  "province": "Illes Balears",
  "postal_code": "07714",
  "phone": "971360264",
  "web": null,
  "lat": 39.887104,
  "lon": 4.244154,
  "exposition": true,
  "category": "Con exposición"
 },
 {
  "id": "14240",
  "name": "LAS CHAFIRAS, S.A.",
  "address": "Autopista del sur KM. 62",
  "city": "San Miguel de Abona",
  "province": "Santa Cruz de Tenerife",
  "postal_code": "38639",
  "phone": "922735054",
  "web": null,
  "lat": 28.052161,
  "lon": -16.609541,
  "exposition": true,
  "category": "Con exposición"
 },
 {
  "id": "14242",
  "name": "LAS CHAFIRAS, S.A.",
  "address": "Autopista Santa Cruz/La Laguna KM. 4,5",
  "city": "San Cristóbal de La Laguna",
  "province": "Santa Cruz de Tenerife",
  "postal_code": "38108",
  "phone": "922626259",
  "web": null,
  "lat": 28.452861,
  "lon": -16.291697,
  "exposition": true,
  "category": "Con exposición"
 },
 {
  "id": "14244",
  "name": "LAS CHAFIRAS, S.A.",
  "address": "Polígono Industrial Barranco Las Torres - Los Olivos",
  "city": "Adeje",
  "province": "Santa Cruz de Tenerife",
  "postal_code": "38670",
  "phone": "922711906",
  "web": null,
  "lat": 28.12816,
  "lon": -16.742107,
  "exposition": true,
  "category": "Con exposición"
 },
 {
  "id": "14246",
  "name": "LEONARDO AZPIRI, S.A.",
  "address": "Calle Fermín Calbeton, 23",
  "city": "Eibar",
  "province": "Gipuzkoa",
  "postal_code": "20600",
  "phone": "943120791",
  "web": null,
  "lat": 43.185021,
  "lon": -2.471375,
  "exposition": true,
  "category": "Con exposición"
 },
 {
  "id": "14248",
  "name": "LEONARDO AZPIRI, S.A.",
  "address": "Polígono Industrial Arriagane, 3",
  "city": "Amorebieta",
  "province": "Bizkaia",
  "postal_code": "48340",
  "phone": "946731016",
  "web": null,
  "lat": 43.228451,
  "lon": -2.756419,
  "exposition": true,
  "category": "Con exposición"
 },
 {
  "id": "14249",
  "name": "LEONARDO AZPIRI, S.A.",
  "address": "Polígono Industrial Matxaria, 2",
  "city": "Eibar",
  "province": "Gipuzkoa",
  "postal_code": "20600",
  "phone": "943203512",
  "web": null,
  "lat": 43.187359,
  "lon": -2.465755,
  "exposition": false,
  "category": "Sin exposición"
 },
 {
  "id": "14250",
  "name": "LEONARDO AZPIRI, S.A.",
  "address": "Paseo Martutene, 17",
  "city": "San Sebastián",
  "province": "Gipuzkoa",
  "postal_code": "20014",
  "phone": "943457100",
  "web": null,
  "lat": 43.302304,
  "lon": -1.957203,
  "exposition": false,
  "category": "Sin exposición"
 },
 {
  "id": "14251",
  "name": "LIBRADO LORIENTE, S.A.",
  "address": "Calle Miguel Cervantes, 50",
  "city": "Tarancón",
  "province": "Cuenca",
  "postal_code": "16400",
  "phone": "969324274",
  "web": null,
  "lat": 40.01047,
  "lon": -3.00813,
  "exposition": true,
  "category": "Con exposición"
 },
 {
  "id": "14252",
  "name": "LIBRADO LORIENTE, S.A.",
  "address": "Calle Hospital, 10",
  "city": "Tarancón",
  "province": "Cuenca",
  "postal_code": "16400",
  "phone": "969320450",
  "web": null,
  "lat": 40.005745,
  "lon": -3.005292,
  "exposition": false,
  "category": "Sin exposición"
 },
 {
  "id": "14253",
  "name": "LIBRADO LORIENTE, S.A.",
  "address": "Avenida Cruz Roja, S/N",
  "city": "Cuenca",
  "province": "Cuenca",
  "postal_code": "16200",
  "phone": "969230483",
  "web": null,
  "lat": 40.073705,
  "lon": -2.170842,
  "exposition": true,
  "category": "Con exposición"
 },
 {
  "id": "14254",
  "name": "LIMAC MAT. DE CONSTRUCCION, S.L.",
  "address": "Calle Paseo Ribalta, 20",
  "city": "Castellón de la Plana",
  "province": "Castellón",
  "postal_code": "12004",
  "phone": "964216690",
  "web": null,
  "lat": 39.989046,
  "lon": -0.044653,
  "exposition": true,
  "category": "Con exposición"
 },
 {
  "id": "14255",
  "name": "LIMAC MAT. DE CONSTRUCCION, S.L.",
  "address": "Avenida Valencia, 220",
  "city": "Castellón de la Plana",
  "province": "Castellón",
  "postal_code": "12006",
  "phone": "964215044",
  "web": null,
  "lat": 39.964492,
  "lon": -0.06449,
  "exposition": false,
  "category": "Sin exposición"
 },
 {
  "id": "14256",
  "name": "LOP, S.A",
  "address": "Polígono Industrial El Campon, S/N",
  "city": "Santander",
  "province": "Cantabria",
  "postal_code": "39011",
  "phone": "942345557",
  "web": null,
  "lat": 43.45239,
  "lon": -3.855934,
  "exposition": true,
  "category": "Con exposición"
 },
 {
  "id": "14257",
  "name": "LOP, S.A",
  "address": "Barrio La Huertas, S/N",
  "city": "Argomilla de Cayón",
  "province": "Cantabria",
  "postal_code": "39626",
  "phone": "942560337",
  "web": null,
  "lat": 43.311461,
  "lon": -3.879342,
  "exposition": false,
  "category": "Sin exposición"
 },
 {
  "id": "14258",
  "name": "LOP, S.A",
  "address": "Avenida de Bilbao, 90  Bis",
  "city": "Torrelavega",
  "province": "Cantabria",
  "postal_code": "39300",
  "phone": "942881975",
  "web": null,
  "lat": 43.342323,
  "lon": -4.033606,
  "exposition": true,
  "category": "Con exposición"
 },
 {
  "id": "14259",
  "name": "LOP, S.A",
  "address": "Barrio La Pesquera, 2",
  "city": "Laredo",
  "province": "Cantabria",
  "postal_code": "39770",
  "phone": "942606673",
  "web": null,
  "lat": 43.40919,
  "lon": -3.438449,
  "exposition": true,
  "category": "Con exposición"
 },
 {
  "id": "14260",
  "name": "MAFONSA",
  "address": "Carretera de la Estació, 56",
  "city": "Blanes",
  "province": "Girona",
  "postal_code": "17300",
  "phone": "972334237",
  "web": null,
  "lat": 41.67612,
  "lon": 2.77763,
  "exposition": true,
  "category": "Con exposición"
 },
 {
  "id": "14261",
  "name": "MAFONSA",
  "address": "Calle Jacinto Benavente, 27",
  "city": "Pineda de Mar",
  "province": "Barcelona",
  "postal_code": "08397",
  "phone": "937621421",
  "web": null,
  "lat": 41.626553,
  "lon": 2.670146,
  "exposition": false,
  "category": "Sin exposición"
 },
 {
  "id": "14262",
  "name": "MAFONSA",
  "address": "Carretera Santa Coloma, 84 - Polígono Industrial Mas Xirgu",
  "city": "Girona",
  "province": "Girona",
  "postal_code": "17005",
  "phone": "972246411",
  "web": null,
  "lat": 41.962166,
  "lon": 2.804342,
  "exposition": false,
  "category": "Sin exposición"
 },
 {
  "id": "14263",
  "name": "MAFONSA",
  "address": "Carretera de Sils, 24",
  "city": "Santa Coloma de Farners",
  "province": "Girona",
  "postal_code": "17430",
  "phone": "972843327",
  "web": null,
  "lat": 41.858033,
  "lon": 2.672804,
  "exposition": false,
  "category": "Sin exposición"
 },
 {
  "id": "14264",
  "name": "MANAU, S.A.",
  "address": "Rambla França, 6-8 - Polígono Industrial Montigalà",
  "city": "Badalona",
  "province": "Barcelona",
  "postal_code": "08917",
  "phone": "934973656",
  "web": null,
  "lat": 41.456673,
  "lon": 2.221153,
  "exposition": true,
  "category": "Con exposición"
 },
 {
  "id": "14266",
  "name": "MANAU, S.A.",
  "address": "Paseo Maragall, 108-112",
  "city": "Barcelona",
  "province": "Barcelona",
  "postal_code": "08027",
  "phone": "932431616",
  "web": null,
  "lat": 41.42119,
  "lon": 2.180211,
  "exposition": true,
  "category": "Con exposición"
 },
 {
  "id": "14268",
  "name": "MANAU, S.A.",
  "address": "Calle Casetas Muntané, S/N",
  "city": "Vallirana",
  "province": "Barcelona",
  "postal_code": "08759",
  "phone": "936830371",
  "web": null,
  "lat": 41.378041,
  "lon": 1.917242,
  "exposition": true,
  "category": "Con exposición"
 },
 {
  "id": "14274",
  "name": "MASSANELLA 1965  S.L.U",
  "address": "Carretera Valldemosa, 44",
  "city": "Palma de Mallorca",
  "province": "Illes Balears",
  "postal_code": "07010",
  "phone": "936740419",
  "web": null,
  "lat": 39.590709,
  "lon": 2.648901,
  "exposition": true,
  "category": "Con exposición"
 },
 {
  "id": "14275",
  "name": "MASSANELLA 1965  S.L.U",
  "address": "Calle Gremi Corredors, 20 - Polígono Industrial Son Rossinyol",
  "city": "Palma de Mallorca",
  "province": "Illes Balears",
  "postal_code": "07009",
  "phone": "971750240",
  "web": null,
  "lat": 39.603829,
  "lon": 2.65539,
  "exposition": false,
  "category": "Sin exposición"
 },
 {
  "id": "14276",
  "name": "MAT. ALT URGELL, S.L.",
  "address": "Carretera Lleida KM.128 - Polígono Industrial La Seu",
  "city": "La Seu d'Urgell",
  "province": "Lleida",
  "postal_code": "25700",
  "phone": "973350866",
  "web": null,
  "lat": 42.35254,
  "lon": 1.438421,
  "exposition": true,
  "category": "Con exposición"
 },
 {
  "id": "14278",
  "name": "MAT. CONST. SERRANO, S.A.",
  "address": "Avenida de Mijas, esquina Circunvalación Fuengirola",
  "city": "Mijas",
  "province": "Málaga",
  "postal_code": "29651",
  "phone": "952463943",
  "web": null,
  "lat": 36.545404,
  "lon": -4.632105,
  "exposition": true,
  "category": "Con exposición"
 },
 {
  "id": "14280",
  "name": "PROINCO",
  "address": "Calle Castilla la Mancha, H1-C H1D - Parque empresarial Antequera",
  "city": "Antequera",
  "province": "Málaga",
  "postal_code": "29200",
  "phone": "952702246",
  "web": null,
  "lat": 37.037468,
  "lon": -4.523995,
  "exposition": true,
  "category": "Con exposición"
 },
 {
  "id": "14282",
  "name": "PROINCO",
  "address": "Calle Lepoldo Lugones, 1 - Polígono Guadalhorce",
  "city": "Málaga",
  "province": "Málaga",
  "postal_code": "29004",
  "phone": "952105115",
  "web": null,
  "lat": 36.693227,
  "lon": -4.49032,
  "exposition": true,
  "category": "Con exposición"
 },
 {
  "id": "14284",
  "name": "PROINCO",
  "address": "Calle Bartolomé Esteban Murillo, 25 - Polígono La Pañoleta",
  "city": "Vélez-Málaga",
  "province": "Málaga",
  "postal_code": "29700",
  "phone": "952549254",
  "web": null,
  "lat": 36.761143,
  "lon": -4.09673,
  "exposition": false,
  "category": "Sin exposición"
 },
 {
  "id": "14285",
  "name": "PROINCO",
  "address": "Avenida Juan Carlos I, 14",
  "city": "Estepona",
  "province": "Málaga",
  "postal_code": "29680",
  "phone": "952808152",
  "web": null,
  "lat": 36.428622,
  "lon": -5.156554,
  "exposition": true,
  "category": "Con exposición"
 },
 {
  "id": "14287",
  "name": "PROINCO",
  "address": "Calle Yedra, 1, Las Lagunas de Mijas",
  "city": "Las Lagunas de Mijas",
  "province": "Málaga",
  "postal_code": "29651",
  "phone": "952478583",
  "web": null,
  "lat": 36.537767,
  "lon": -4.640028,
  "exposition": false,
  "category": "Sin exposición"
 },
 {
  "id": "14288",
  "name": "PROINCO",
  "address": "Calle Canales, 16",
  "city": "Málaga",
  "province": "Málaga",
  "postal_code": "29002",
  "phone": "952313650",
  "web": null,
  "lat": 36.711003,
  "lon": -4.427825,
  "exposition": false,
  "category": "Sin exposición"
 },
 {
  "id": "14289",
  "name": "PROINCO",
  "address": "Calle Calañas 11",
  "city": "Málaga",
  "province": "Málaga",
  "postal_code": "29004",
  "phone": "952231495",
  "web": null,
  "lat": 36.692749,
  "lon": -4.451561,
  "exposition": false,
  "category": "Sin exposición"
 },
 {
  "id": "14290",
  "name": "PROINCO",
  "address": "Avenida Los Vegas, 37-39 - Polígono El Viso",
  "city": "Málaga",
  "province": "Málaga",
  "postal_code": "29006",
  "phone": "952311262",
  "web": null,
  "lat": 36.71133,
  "lon": -4.476765,
  "exposition": true,
  "category": "Con exposición"
 },
 {
  "id": "14292",
  "name": "PROINCO",
  "address": "Calle Genal, 11 - Polígono Industrial El Fuerte",
  "city": "Ronda",
  "province": "Málaga",
  "postal_code": "29400",
  "phone": "952161311",
  "web": null,
  "lat": 36.751145,
  "lon": -5.161723,
  "exposition": true,
  "category": "Con exposición"
 },
 {
  "id": "14293",
  "name": "PROINCO",
  "address": "Calle Alfareros, Parc.115-116 - Polígono Industrial Los Pedroches",
  "city": "Córdoba",
  "province": "Córdoba",
  "postal_code": "14014",
  "phone": "957117857",
  "web": null,
  "lat": 37.901735,
  "lon": -4.761415,
  "exposition": true,
  "category": "Con exposición"
 },
 {
  "id": "14295",
  "name": "PROINCO",
  "address": "C/ Bergantín 18, P.I. Palmones",
  "city": "Los Barrios",
  "province": "Cádiz",
  "postal_code": "11379",
  "phone": "956678335",
  "web": null,
  "lat": 36.177898,
  "lon": -5.444866,
  "exposition": false,
  "category": "Sin exposición"
 },
 {
  "id": "14296",
  "name": "PROINCO",
  "address": "P.I. Carretera Amarilla, C. Rafael Beca Mateos, 20",
  "city": "Sevilla",
  "province": "Sevilla",
  "postal_code": "41007",
  "phone": "954251727",
  "web": null,
  "lat": 37.392543,
  "lon": -5.953821,
  "exposition": true,
  "category": "Con exposición"
 },
 {
  "id": "14298",
  "name": "PROINCO",
  "address": "Calle Guadix, Parcela 367 - Polígono Industrial Juncaril",
  "city": "Albolote",
  "province": "Granada",
  "postal_code": "18220",
  "phone": "958466946",
  "web": null,
  "lat": 37.224971,
  "lon": -3.643066,
  "exposition": true,
  "category": "Con exposición"
 },
 {
  "id": "14299",
  "name": "PROINCO",
  "address": "Calle Gutemberg, 16 - Polígono Industrial Estepona",
  "city": "Estepona",
  "province": "Málaga",
  "postal_code": "29680",
  "phone": "952808152",
  "web": null,
  "lat": 36.43184,
  "lon": -5.166997,
  "exposition": false,
  "category": "Sin exposición"
 },
 {
  "id": "14300",
  "name": "PROINCO",
  "address": "Calle Zinc, 6 - Polígono Industrial La Ermita",
  "city": "Marbella",
  "province": "Málaga",
  "postal_code": "29603",
  "phone": "952910952",
  "web": null,
  "lat": 36.509164,
  "lon": -4.867106,
  "exposition": true,
  "category": "Con exposición"
 },
 {
  "id": "14302",
  "name": "REPLYSA, S.L.",
  "address": "Carretera de Soria, 30",
  "city": "La Lastrilla",
  "province": "Segovia",
  "postal_code": "40196",
  "phone": "921436881",
  "web": null,
  "lat": 40.966788,
  "lon": -4.095764,
  "exposition": true,
  "category": "Con exposición"
 },
 {
  "id": "14304",
  "name": "ROALEX SANEHOGAR, S.L.",
  "address": "Paseo San Gregorio, 77",
  "city": "Puertollano",
  "province": "Ciudad Real",
  "postal_code": "13500",
  "phone": "926441896",
  "web": null,
  "lat": 38.691591,
  "lon": -4.10914,
  "exposition": true,
  "category": "Con exposición"
 },
 {
  "id": "14305",
  "name": "RODRISAN",
  "address": "Calle Bruselas, 4",
  "city": "Alcorcón",
  "province": "Madrid",
  "postal_code": "28922",
  "phone": "914983490",
  "web": null,
  "lat": 40.3446,
  "lon": -3.84973,
  "exposition": true,
  "category": "Con exposición"
 },
 {
  "id": "14306",
  "name": "RODRISAN",
  "address": "Polígono Industrail, 1 - Calle C",
  "city": "Móstoles",
  "province": "Madrid",
  "postal_code": "28938",
  "phone": "916473131",
  "web": null,
  "lat": 40.307105,
  "lon": -3.871987,
  "exposition": false,
  "category": "Sin exposición"
 },
 {
  "id": "14307",
  "name": "ROSELLO HIJOS E HIJOS, S.L.",
  "address": "Avenida Europa, 13",
  "city": "Benissa",
  "province": "Alicante",
  "postal_code": "03720",
  "phone": "965730784",
  "web": null,
  "lat": 38.71868,
  "lon": 0.060275,
  "exposition": true,
  "category": "Con exposición"
 },
 {
  "id": "14308",
  "name": "SAEZ DE TEJADA, S.A.",
  "address": "Avenida Andalucía, S/N",
  "city": "Granada",
  "province": "Granada",
  "postal_code": "18015",
  "phone": "958291200",
  "web": null,
  "lat": 37.197727,
  "lon": -3.633935,
  "exposition": true,
  "category": "Con exposición"
 },
 {
  "id": "14310",
  "name": "LA PLATAFORMA DE LA CONSTRUCCION",
  "address": "Calle Juan José Vidal, 4 - Polígono Industrial Las Mezquitas",
  "city": "Getafe",
  "province": "Madrid",
  "postal_code": "28906",
  "phone": "914818805",
  "web": null,
  "lat": 40.30455,
  "lon": -3.705786,
  "exposition": false,
  "category": "Sin exposición"
 },
 {
  "id": "14312",
  "name": "SALTOKI",
  "address": "Calle Puente Navafría, 21",
  "city": "Móstoles",
  "province": "Madrid",
  "postal_code": "28935",
  "phone": "916169470",
  "web": null,
  "lat": 40.351258,
  "lon": -3.867926,
  "exposition": false,
  "category": "Sin exposición"
 },