[
 {
  "id": "sup-000",
  "name": "Roca Barcelona Gallery",
  "type": "gallery",
  "address": "Av. Diagonal, 10",
  "city": "Barcelona",
  "province": "Barcelona",
  "postal_code": "08000",
  "phone": "+34 800 100 200",
  "lat": 41.3874,
  "lon": 2.1686,
  "official": true
 },
 {
  "id": "sup-001",
  "name": "Roca Madrid Gallery",
  "type": "gallery",
  "address": "C/ Mayor, 17",
  "city": "Madrid",
  "province": "Madrid",
  "postal_code": "08137",
  "phone": "+34 801 101 201",
  "lat": 40.4168,
  "lon": -3.7038,
  "official": true
 },
 {
  "id": "sup-002",
  "name": "Roca Valencia Gallery",
  "type": "gallery",
  "address": "Av. de la Constitución, 24",
  "city": "Valencia",
  "province": "Valencia",
  "postal_code": "08274",
  "phone": "+34 802 102 202",
  "lat": 39.4699,
  "lon": -0.3763,
  "official": true
 },
 {
  "id": "sup-003",
  "name": "Roca Sevilla Gallery",
  "type": "gallery",
  "address": "Ronda Litoral, 31",
  "city": "Sevilla",
  "province": "Sevilla",
  "postal_code": "08411",
  "phone": "+34 803 103 203",
  "lat": 37.3891,
  "lon": -5.9845,
  "official": true
 },
 {
  "id": "sup-004",
  "name": "Roca Bilbao Gallery",
  "type": "gallery",
  "address": "C/ Industria, 38",
  "city": "Bilbao",
  "province": "Bizkaia",
  "postal_code": "08548",
  "phone": "+34 804 104 204",
  "lat": 43.263,
  "lon": -2.935,
  "official": true
 },
 {
  "id": "sup-005",
  "name": "Saneamientos Málaga",
  "type": "distribuidor",
  "address": "Pol. Ind. Les Comes, 45",
  "city": "Málaga",
  "province": "Málaga",
  "postal_code": "08685",
  "phone": "+34 905 105 205",
  "lat": 36.7213,
  "lon": -4.4214,
  "official": false
 },
 {
  "id": "sup-006",
  "name": "Saneamientos Zaragoza",
  "type": "distribuidor",
  "address": "Av. del Puerto, 52",
  "city": "Zaragoza",
  "province": "Zaragoza",
  "postal_code": "08822",
  "phone": "+34 906 106 206",
  "lat": 41.6488,
  "lon": -0.8891,
  "official": false
 },
 {
  "id": "sup-007",
  "name": "Saneamientos Palma",
  "type": "distribuidor",
  "address": "C/ del Comercio, 59",
  "city": "Palma",
  "province": "Illes Balears",
  "postal_code": "08959",
  "phone": "+34 907 107 207",
  "lat": 39.5696,
  "lon": 2.6502,
  "official": false
 },
 {
  "id": "sup-008",
  "name": "Saneamientos A Coruña",
  "type": "distribuidor",
  "address": "Ctra. Nacional II, km 12, 66",
  "city": "A Coruña",
  "province": "A Coruña",
  "postal_code": "09096",
  "phone": "+34 908 108 208",
  "lat": 43.3623,
  "lon": -8.4115,
  "official": false
 },
 {
  "id": "sup-009",
  "name": "Saneamientos Vigo",
  "type": "distribuidor",
  "address": "C/ San Juan, 73",
  "city": "Vigo",
  "province": "Pontevedra",
  "postal_code": "09233",
  "phone": "+34 909 109 209",
  "lat": 42.2406,
  "lon": -8.7207,
  "official": false
 },
 {
  "id": "sup-010",
  "name": "Saneamientos Gijón",
  "type": "distribuidor",
  "address": "Av. Diagonal, 80",
  "city": "Gijón",
  "province": "Asturias",
  "postal_code": "09370",
  "phone": "+34 910 110 210",
  "lat": 43.5322,
  "lon": -5.6611,
  "official": false
 },
 {
  "id": "sup-011",
  "name": "Saneamientos Granada",
  "type": "distribuidor",
  "address": "C/ Mayor, 87",
  "city": "Granada",
  "province": "Granada",
  "postal_code": "09507",
  "phone": "+34 911 111 211",
  "lat": 37.1773,
  "lon": -3.5986,
  "official": false
 },
 {
  "id": "sup-012",
  "name": "Saneamientos Murcia",
  "type": "distribuidor",
  "address": "Av. de la Constitución, 94",
  "city": "Murcia",
  "province": "Murcia",
  "postal_code": "09644",
  "phone": "+34 912 112 212",
  "lat": 37.9922,
  "lon": -1.1307,
  "official": false
 },
 {
  "id": "sup-013",
  "name": "Saneamientos Alicante",
  "type": "distribuidor",
  "address": "Ronda Litoral, 101",
  "city": "Alicante",
  "province": "Alicante",
  "postal_code": "09781",
  "phone": "+34 913 113 213",
  "lat": 38.3452,
  "lon": -0.481,
  "official": false
 },
 {
  "id": "sup-014",
  "name": "Saneamientos Córdoba",
  "type": "distribuidor",
  "address": "C/ Industria, 108",
  "city": "Córdoba",
  "province": "Córdoba",
  "postal_code": "09918",
  "phone": "+34 914 114 214",
  "lat": 37.8882,
  "lon": -4.7794,
  "official": false
 },
 {
  "id": "sup-015",
  "name": "Saneamientos Valladolid",
  "type": "distribuidor",
  "address": "Pol. Ind. Les Comes, 115",
  "city": "Valladolid",
  "province": "Valladolid",
  "postal_code": "10055",
  "phone": "+34 915 115 215",
  "lat": 41.6523,
  "lon": -4.7245,
  "official": false
 },
 {
  "id": "sup-016",
  "name": "Saneamientos San Sebastián",
  "type": "distribuidor",
  "address": "Av. del Puerto, 122",
  "city": "San Sebastián",
  "province": "Gipuzkoa",
  "postal_code": "10192",
  "phone": "+34 916 116 216",
  "lat": 43.3183,
  "lon": -1.9812,
  "official": false
 },
 {
  "id": "sup-017",
  "name": "Saneamientos Pamplona",
  "type": "distribuidor",
  "address": "C/ del Comercio, 129",
  "city": "Pamplona",
  "province": "Navarra",
  "postal_code": "10329",
  "phone": "+34 917 117 217",
  "lat": 42.8125,
  "lon": -1.6458,
  "official": false
 },
 {
  "id": "sup-018",
  "name": "Saneamientos Santander",
  "type": "distribuidor",
  "address": "Ctra. Nacional II, km 12, 136",
  "city": "Santander",
  "province": "Cantabria",
  "postal_code": "10466",
  "phone": "+34 918 118 218",
  "lat": 43.4623,
  "lon": -3.8099,
  "official": false
 },
 {
  "id": "sup-019",
  "name": "Saneamientos Salamanca",
  "type": "distribuidor",
  "address": "C/ San Juan, 143",
  "city": "Salamanca",
  "province": "Salamanca",
  "postal_code": "10603",
  "phone": "+34 919 119 219",
  "lat": 40.9701,
  "lon": -5.6635,
  "official": false
 },
 {
  "id": "sup-020",
  "name": "Saneamientos León",
  "type": "distribuidor",
  "address": "Av. Diagonal, 150",
  "city": "León",
  "province": "León",
  "postal_code": "10740",
  "phone": "+34 920 120 220",
  "lat": 42.5987,
  "lon": -5.5671,
  "official": false
 },
 {
  "id": "sup-021",
  "name": "Saneamientos Burgos",
  "type": "distribuidor",
  "address": "C/ Mayor, 157",
  "city": "Burgos",
  "province": "Burgos",
  "postal_code": "10877",
  "phone": "+34 921 121 221",
  "lat": 42.3439,
  "lon": -3.6969,
  "official": false
 },
 {
  "id": "sup-022",
  "name": "Saneamientos Toledo",
  "type": "distribuidor",
  "address": "Av. de la Constitución, 164",
  "city": "Toledo",
  "province": "Toledo",
  "postal_code": "11014",
  "phone": "+34 922 122 222",
  "lat": 39.8628,
  "lon": -4.0273,
  "official": false
 },
 {
  "id": "sup-023",
  "name": "Saneamientos Almería",
  "type": "distribuidor",
  "address": "Ronda Litoral, 171",
  "city": "Almería",
  "province": "Almería",
  "postal_code": "11151",
  "phone": "+34 923 123 223",
  "lat": 36.834,
  "lon": -2.4637,
  "official": false
 },
 {
  "id": "sup-024",
  "name": "Saneamientos Cádiz",
  "type": "distribuidor",
  "address": "C/ Industria, 178",
  "city": "Cádiz",
  "province": "Cádiz",
  "postal_code": "11288",
  "phone": "+34 924 124 224",
  "lat": 36.5271,
  "lon": -6.2886,
  "official": false
 },
 {
  "id": "sup-025",
  "name": "Saneamientos Logroño",
  "type": "distribuidor",
  "address": "Pol. Ind. Les Comes, 185",
  "city": "Logroño",
  "province": "La Rioja",
  "postal_code": "11425",
  "phone": "+34 925 125 225",
  "lat": 42.4627,
  "lon": -2.4449,
  "official": false
 },
 {
  "id": "sup-026",
  "name": "Saneamientos Castellón",
  "type": "distribuidor",
  "address": "Av. del Puerto, 12",
  "city": "Castellón",
  "province": "Castellón",
  "postal_code": "11562",
  "phone": "+34 926 126 226",
  "lat": 39.9864,
  "lon": -0.0513,
  "official": false
 },
 {
  "id": "sup-027",
  "name": "Saneamientos L'Hospitalet de Llobregat",
  "type": "distribuidor",
  "address": "C/ del Comercio, 19",
  "city": "L'Hospitalet de Llobregat",
  "province": "Barcelona",
  "postal_code": "11699",
  "phone": "+34 927 127 227",
  "lat": 41.3596,
  "lon": 2.0999,
  "official": false
 },
 {
  "id": "sup-028",
  "name": "Saneamientos Badalona",
  "type": "distribuidor",
  "address": "Ctra. Nacional II, km 12, 26",
  "city": "Badalona",
  "province": "Barcelona",
  "postal_code": "11836",
  "phone": "+34 928 128 228",
  "lat": 41.45,
  "lon": 2.2474,
  "official": false
 },
 {
  "id": "sup-029",
  "name": "Saneamientos Sabadell",
  "type": "distribuidor",
  "address": "C/ San Juan, 33",
  "city": "Sabadell",
  "province": "Barcelona",
  "postal_code": "11973",
  "phone": "+34 929 129 229",
  "lat": 41.5463,
  "lon": 2.1086,
  "official": false
 },
 {
  "id": "sup-030",
  "name": "Saneamientos Terrassa",
  "type": "distribuidor",
  "address": "Av. Diagonal, 40",
  "city": "Terrassa",
  "province": "Barcelona",
  "postal_code": "12110",
  "phone": "+34 930 130 230",
  "lat": 41.5615,
  "lon": 2.0084,
  "official": false
 },
 {
  "id": "sup-031",
  "name": "Saneamientos Mataró",
  "type": "distribuidor",
  "address": "C/ Mayor, 47",
  "city": "Mataró",
  "province": "Barcelona",
  "postal_code": "12247",
  "phone": "+34 931 131 231",
  "lat": 41.5388,
  "lon": 2.4449,
  "official": false
 },
 {
  "id": "sup-032",
  "name": "Saneamientos Girona",
  "type": "distribuidor",
  "address": "Av. de la Constitución, 54",
  "city": "Girona",
  "province": "Girona",
  "postal_code": "12384",
  "phone": "+34 932 132 232",
  "lat": 41.9794,
  "lon": 2.8214,
  "official": false
 },
 {
  "id": "sup-033",
  "name": "Saneamientos Tarragona",
  "type": "distribuidor",
  "address": "Ronda Litoral, 61",
  "city": "Tarragona",
  "province": "Tarragona",
  "postal_code": "12521",
  "phone": "+34 933 133 233",
  "lat": 41.1189,
  "lon": 1.2445,
  "official": false
 },
 {
  "id": "sup-034",
  "name": "Saneamientos Reus",
  "type": "distribuidor",
  "address": "C/ Industria, 68",
  "city": "Reus",
  "province": "Tarragona",
  "postal_code": "12658",
  "phone": "+34 934 134 234",
  "lat": 41.155,
  "lon": 1.1075,
  "official": false
 },
 {
  "id": "sup-035",
  "name": "Saneamientos Lleida",
  "type": "distribuidor",
  "address": "Pol. Ind. Les Comes, 75",
  "city": "Lleida",
  "province": "Lleida",
  "postal_code": "12795",
  "phone": "+34 935 135 235",
  "lat": 41.6176,
  "lon": 0.62,
  "official": false
 },
 {
  "id": "sup-036",
  "name": "Saneamientos Manresa",
  "type": "distribuidor",
  "address": "Av. del Puerto, 82",
  "city": "Manresa",
  "province": "Barcelona",
  "postal_code": "12932",
  "phone": "+34 936 136 236",
  "lat": 41.723,
  "lon": 1.8265,
  "official": false
 },
 {
  "id": "sup-037",
  "name": "Saneamientos Getafe",
  "type": "distribuidor",
  "address": "C/ del Comercio, 89",
  "city": "Getafe",
  "province": "Madrid",
  "postal_code": "13069",
  "phone": "+34 937 137 237",
  "lat": 40.3082,
  "lon": -3.7326,
  "official": false
 },
 {
  "id": "sup-038",
  "name": "Saneamientos Alcalá de Henares",
  "type": "distribuidor",
  "address": "Ctra. Nacional II, km 12, 96",
  "city": "Alcalá de Henares",
  "province": "Madrid",
  "postal_code": "13206",
  "phone": "+34 938 138 238",
  "lat": 40.4818,
  "lon": -3.3644,
  "official": false
 },
 {
  "id": "sup-039",
  "name": "Saneamientos Móstoles",
  "type": "distribuidor",
  "address": "C/ San Juan, 103",
  "city": "Móstoles",
  "province": "Madrid",
  "postal_code": "13343",
  "phone": "+34 939 139 239",
  "lat": 40.3223,
  "lon": -3.8649,
  "official": false
 }
]